{
  "version": 0.6,
  "generator": "Overpass API 0.7.62.11 87bfad18",
  "osm3s": {
    "timestamp_osm_base": "2026-07-23T06:30:06Z",
    "copyright": "The data included in this document is from www.openstreetmap.org. The data is made available under ODbL."
  },
  "elements": [
    {
      "type": "way",
      "id": 32575784,
      "center": {
        "lat": 10.8107672,
        "lon": 106.6569288
      },
      "tags": {
        "access": "private",
        "highway": "service"
      }
    },
    {
      "type": "way",
      "id": 32575830,
      "center": {
        "lat": 10.829313,
        "lon": 106.6411887
      },
      "tags": {
        "highway": "residential",
        "name": "Hẻm 229 Huỳnh Văn Nghệ"
      }
    },
    {
      "type": "way",
      "id": 32575971,
      "center": {
        "lat": 10.8101414,
        "lon": 106.6553654
      },
      "tags": {
        "bicycle": "no",
        "highway": "tertiary",
        "lanes": "4",
        "motorcycle": "no",
        "name": "Đường 18E",
        "oneway": "yes"
      }
    },
    {
      "type": "way",
      "id": 32576023,
      "center": {
        "lat": 10.7879656,
        "lon": 106.6231877
      },
      "tags": {
        "highway": "residential",
        "name": "Võ Hoành"
      }
    },
    {
      "type": "way",
      "id": 32576071,
      "center": {
        "lat": 10.7802548,
        "lon": 106.6319089
      },
      "tags": {
        "highway": "residential",
        "name": "Hẻm 198 Thoại Ngọc Hầu",
        "surface": "asphalt"
      }
    },
    {
      "type": "way",
      "id": 32576164,
      "center": {
        "lat": 10.792322,
        "lon": 106.6156771
      },
      "tags": {
        "highway": "secondary",
        "name": "Bình Long",
        "name:en": "Binh Long Road",
        "name:zh": "平隆路",
        "ref": "ĐH.3"
      }
    },
    {
      "type": "way",
      "id": 32576202,
      "center": {
        "lat": 10.7953211,
        "lon": 106.6428169
      },
      "tags": {
        "highway": "tertiary",
        "lanes": "2",
        "name": "Nguyễn Hồng Đào",
        "name:en": "Nguyen Hong Dao",
        "surface": "asphalt"
      }
    },
    {
      "type": "way",
      "id": 32576275,
      "center": {
        "lat": 10.7995574,
        "lon": 106.6510997
      },
      "tags": {
        "highway": "residential",
        "lanes": "2",
        "name": "Phan Bá Phiến",
        "surface": "asphalt"
      }
    },
    {
      "type": "way",
      "id": 32576497,
      "center": {
        "lat": 10.8329836,
        "lon": 106.6396235
      },
      "tags": {
        "highway": "residential",
        "name": "Hẻm 105 Nguyễn Tư Giản"
      }
    },
    {
      "type": "way",
      "id": 32576538,
      "center": {
        "lat": 10.7991395,
        "lon": 106.6502967
      },
      "tags": {
        "highway": "residential",
        "lanes": "2",
        "name": "Nguyễn Thế Lộc",
        "surface": "asphalt"
      }
    },
    {
      "type": "way",
      "id": 32576747,
      "center": {
        "lat": 10.8079005,
        "lon": 106.6630634
      },
      "tags": {
        "addr:city": "Ho Chi Minh City",
        "addr:district": "TanBinh",
        "highway": "tertiary",
        "lane_markings": "yes",
        "lanes": "2",
        "maxspeed": "50",
        "name": "Hậu Giang",
        "name:en": "Hau Giang",
        "surface": "asphalt"
      }
    },
    {
      "type": "way",
      "id": 32576774,
      "center": {
        "lat": 10.8156789,
        "lon": 106.6297682
      },
      "tags": {
        "highway": "service"
      }
    },
    {
      "type": "way",
      "id": 32576848,
      "center": {
        "lat": 10.8155485,
        "lon": 106.6257043
      },
      "tags": {
        "highway": "residential",
        "name": "Đường D10",
        "name:en": "D10 Street"
      }
    },
    {
      "type": "way",
      "id": 32576912,
      "center": {
        "lat": 10.8261209,
        "lon": 106.6338633
      },
      "tags": {
        "highway": "residential",
        "name": "Trần Thị Trọng",
        "old_name": "Cống Lở"
      }
    },
    {
      "type": "way",
      "id": 32576951,
      "center": {
        "lat": 10.7928723,
        "lon": 106.6191302
      },
      "tags": {
        "highway": "residential",
        "name": "Lê Sát"
      }
    },
    {
      "type": "way",
      "id": 32577460,
      "center": {
        "lat": 10.7803012,
        "lon": 106.6282436
      },
      "tags": {
        "highway": "tertiary",
        "name": "Lê Khôi"
      }
    },
    {
      "type": "way",
      "id": 32577479,
      "center": {
        "lat": 10.7893714,
        "lon": 106.6353426
      },
      "tags": {
        "highway": "residential",
        "name": "Cách Mạng"
      }
    },
    {
      "type": "way",
      "id": 32577521,
      "center": {
        "lat": 10.7941208,
        "lon": 106.6167363
      },
      "tags": {
        "highway": "residential",
        "name": "Dương Văn Dương"
      }
    },
    {
      "type": "way",
      "id": 32577523,
      "center": {
        "lat": 10.7943594,
        "lon": 106.6426951
      },
      "tags": {
        "highway": "residential",
        "name": "Bàu Cát 1",
        "name:en": "Bau Cat 1"
      }
    },
    {
      "type": "way",
      "id": 32577524,
      "center": {
        "lat": 10.7934512,
        "lon": 106.6432806
      },
      "tags": {
        "highway": "residential",
        "name": "Bàu Cát 2",
        "surface": "asphalt"
      }
    },
    {
      "type": "way",
      "id": 32577583,
      "center": {
        "lat": 10.7846575,
        "lon": 106.6224789
      },
      "tags": {
        "highway": "residential",
        "name": "Lê Lăng",
        "surface": "asphalt"
      }
    },
    {
      "type": "way",
      "id": 32577687,
      "center": {
        "lat": 10.7929609,
        "lon": 106.6224779
      },
      "tags": {
        "highway": "residential",
        "lane_markings": "yes",
        "lanes": "2",
        "name": "Nguyễn Súy",
        "surface": "asphalt"
      }
    },
    {
      "type": "way",
      "id": 32578004,
      "center": {
        "lat": 10.784961,
        "lon": 106.6246717
      },
      "tags": {
        "highway": "residential",
        "name": "Phạm Vấn"
      }
    },
    {
      "type": "way",
      "id": 32578100,
      "center": {
        "lat": 10.7856504,
        "lon": 106.6459002
      },
      "tags": {
        "highway": "tertiary",
        "name": "Ni Sư Huỳnh Liên",
        "name:en": "Ni Su Huynh Lien St.",
        "old_name": "ờn Lan"
      }
    },
    {
      "type": "way",
      "id": 32578157,
      "center": {
        "lat": 10.7824821,
        "lon": 106.620785
      },
      "tags": {
        "highway": "tertiary",
        "lanes": "2",
        "name": "Văn Cao",
        "surface": "asphalt"
      }
    },
    {
      "type": "way",
      "id": 32578286,
      "center": {
        "lat": 10.7936232,
        "lon": 106.6334467
      },
      "tags": {
        "highway": "residential",
        "lane_markings": "yes",
        "lanes": "2",
        "name": "Thành Công",
        "surface": "asphalt"
      }
    },
    {
      "type": "way",
      "id": 32578413,
      "center": {
        "lat": 10.7997832,
        "lon": 106.6524779
      },
      "tags": {
        "highway": "residential",
        "name": "Quách Văn Tuấn"
      }
    },
    {
      "type": "way",
      "id": 32578549,
      "center": {
        "lat": 10.7997212,
        "lon": 106.6620894
      },
      "tags": {
        "highway": "residential",
        "name": "Bùi Thị Xuân",
        "surface": "asphalt"
      }
    },
    {
      "type": "way",
      "id": 32578565,
      "center": {
        "lat": 10.8072337,
        "lon": 106.6621555
      },
      "tags": {
        "highway": "residential",
        "lane_markings": "no",
        "maxspeed:type": "VN:urban",
        "name": "Nguyễn Văn Vĩnh",
        "surface": "asphalt"
      }
    },
    {
      "type": "way",
      "id": 32578733,
      "center": {
        "lat": 10.7878797,
        "lon": 106.646576
      },
      "tags": {
        "highway": "tertiary",
        "name": "Hồng Lạc",
        "name:en": "Hong Lac",
        "oneway": "yes",
        "oneway:bicycle": "no",
        "oneway:mofa": "no",
        "oneway:moped": "no",
        "oneway:motorcycle": "no"
      }
    },
    {
      "type": "way",
      "id": 32578734,
      "center": {
        "lat": 10.7856129,
        "lon": 106.6502923
      },
      "tags": {
        "highway": "residential",
        "name": "Hẻm 911 Lạc Long Quân, P.11, Q.Tân Bình",
        "name:en": "Alley 911 Lac Long Quan",
        "oneway": "no"
      }
    },
    {
      "type": "way",
      "id": 32578880,
      "center": {
        "lat": 10.790758,
        "lon": 106.6507113
      },
      "tags": {
        "highway": "residential",
        "name": "Năm Châu"
      }
    },
    {
      "type": "way",
      "id": 32579147,
      "center": {
        "lat": 10.7947794,
        "lon": 106.656263
      },
      "tags": {
        "highway": "residential",
        "name": "Hẻm 8 Nguyễn Đình Khơi"
      }
    },
    {
      "type": "way",
      "id": 32579406,
      "center": {
        "lat": 10.7917237,
        "lon": 106.6277377
      },
      "tags": {
        "highway": "residential",
        "name": "Đô Đốc Long",
        "name:en": "Do Doc Long"
      }
    },
    {
      "type": "way",
      "id": 32579418,
      "center": {
        "lat": 10.7961956,
        "lon": 106.6410734
      },
      "tags": {
        "highway": "tertiary",
        "lanes": "2",
        "name": "Trương Công Định",
        "name:en": "Truong Cong Dinh",
        "surface": "asphalt"
      }
    },
    {
      "type": "way",
      "id": 32579549,
      "center": {
        "lat": 10.7975168,
        "lon": 106.6612499
      },
      "tags": {
        "highway": "residential",
        "name": "Nguyễn Thanh Tuyền"
      }
    },
    {
      "type": "way",
      "id": 32579614,
      "center": {
        "lat": 10.8016017,
        "lon": 106.6279717
      },
      "tags": {
        "highway": "tertiary",
        "name": "Nguyễn Quý Anh",
        "surface": "asphalt"
      }
    },
    {
      "type": "way",
      "id": 32579680,
      "center": {
        "lat": 10.8117201,
        "lon": 106.6212946
      },
      "tags": {
        "highway": "tertiary",
        "name": "Đường Tây Thạnh",
        "name:en": "Tay Thanh St.",
        "oneway": "yes"
      }
    },
    {
      "type": "way",
      "id": 32579801,
      "center": {
        "lat": 10.807005,
        "lon": 106.6624626
      },
      "tags": {
        "highway": "residential",
        "lane_markings": "no",
        "lit": "yes",
        "name": "Nguyễn Trọng Lội",
        "smoothness": "excellent",
        "surface": "asphalt"
      }
    },
    {
      "type": "way",
      "id": 32579981,
      "center": {
        "lat": 10.8151652,
        "lon": 106.6260199
      },
      "tags": {
        "highway": "residential",
        "name": "Đường D13",
        "name:en": "Duong D13"
      }
    },
    {
      "type": "way",
      "id": 32579995,
      "center": {
        "lat": 10.7976488,
        "lon": 106.6197563
      },
      "tags": {
        "highway": "tertiary",
        "lane_markings": "yes",
        "lanes": "2",
        "name": "Tân Quý",
        "surface": "asphalt"
      }
    },
    {
      "type": "way",
      "id": 32580169,
      "center": {
        "lat": 10.8037755,
        "lon": 106.6528024
      },
      "tags": {
        "highway": "residential",
        "name": "Đường 20 Cộng Hòa"
      }
    },
    {
      "type": "way",
      "id": 32580182,
      "center": {
        "lat": 10.780013,
        "lon": 106.6289261
      },
      "tags": {
        "highway": "residential",
        "name": "Phan Văn Năm"
      }
    },
    {
      "type": "way",
      "id": 32580230,
      "center": {
        "lat": 10.7960862,
        "lon": 106.6565274
      },
      "tags": {
        "highway": "residential"
      }
    },
    {
      "type": "way",
      "id": 32580242,
      "center": {
        "lat": 10.7951298,
        "lon": 106.6532073
      },
      "tags": {
        "highway": "primary",
        "lanes": "3",
        "name": "Xuân Hồng",
        "oneway": "yes",
        "surface": "asphalt"
      }
    },
    {
      "type": "way",
      "id": 32580246,
      "center": {
        "lat": 10.7827331,
        "lon": 106.6250194
      },
      "tags": {
        "highway": "residential",
        "name": "Trần Thủ Độ"
      }
    },
    {
      "type": "way",
      "id": 32580331,
      "center": {
        "lat": 10.8060859,
        "lon": 106.6436526
      },
      "tags": {
        "highway": "residential",
        "name": "Mai Lão Bạng"
      }
    },
    {
      "type": "way",
      "id": 32580650,
      "center": {
        "lat": 10.8183818,
        "lon": 106.6252645
      },
      "tags": {
        "highway": "residential",
        "name": "Đường CN3"
      }
    },
    {
      "type": "way",
      "id": 32580739,
      "center": {
        "lat": 10.7903473,
        "lon": 106.6307854
      },
      "tags": {
        "highway": "residential",
        "lane_markings": "yes",
        "lanes": "2",
        "name": "Phan Đình Phùng",
        "surface": "asphalt"
      }
    },
    {
      "type": "way",
      "id": 32580769,
      "center": {
        "lat": 10.7833527,
        "lon": 106.6276326
      },
      "tags": {
        "highway": "residential",
        "name": "Đỗ Đức Dục"
      }
    },
    {
      "type": "way",
      "id": 32580959,
      "center": {
        "lat": 10.7986809,
        "lon": 106.6242137
      },
      "tags": {
        "highway": "tertiary",
        "name": "Cầu Xéo"
      }
    },
    {
      "type": "way",
      "id": 32580977,
      "center": {
        "lat": 10.8325984,
        "lon": 106.6386181
      },
      "tags": {
        "highway": "residential",
        "lanes": "1",
        "name": "Nguyễn Tư Giản",
        "surface": "asphalt"
      }
    },
    {
      "type": "way",
      "id": 32581109,
      "center": {
        "lat": 10.7963236,
        "lon": 106.6089486
      },
      "tags": {
        "highway": "residential",
        "name": "Đường số 8"
      }
    },
    {
      "type": "way",
      "id": 32581226,
      "center": {
        "lat": 10.7926164,
        "lon": 106.6353916
      },
      "tags": {
        "highway": "residential",
        "name": "Nguyễn Trường Tộ"
      }
    },
    {
      "type": "way",
      "id": 32581382,
      "center": {
        "lat": 10.7899917,
        "lon": 106.6557277
      },
      "tags": {
        "highway": "residential",
        "name": "Hẻm 1025 Cách Mạng Tháng 8"
      }
    },
    {
      "type": "way",
      "id": 32581387,
      "center": {
        "lat": 10.7897781,
        "lon": 106.6418589
      },
      "tags": {
        "highway": "residential",
        "name": "Bế Văn Đàn"
      }
    },
    {
      "type": "way",
      "id": 32581483,
      "center": {
        "lat": 10.804579,
        "lon": 106.6277653
      },
      "tags": {
        "highway": "residential",
        "name": "Sơn Kỳ"
      }
    },
    {
      "type": "way",
      "id": 32581500,
      "center": {
        "lat": 10.7940256,
        "lon": 106.6336306
      },
      "tags": {
        "highway": "tertiary",
        "lane_markings": "yes",
        "lanes": "2",
        "name": "Trương Vĩnh Ký",
        "oneway": "no",
        "surface": "asphalt"
      }
    },
    {
      "type": "way",
      "id": 32581520,
      "center": {
        "lat": 10.7902523,
        "lon": 106.6179391
      },
      "tags": {
        "highway": "residential",
        "name": "Đỗ Thừa Tự"
      }
    },
    {
      "type": "way",
      "id": 32581644,
      "center": {
        "lat": 10.7850069,
        "lon": 106.6254296
      },
      "tags": {
        "highway": "residential",
        "name": "Hoàng Ngọc Phách"
      }
    },
    {
      "type": "way",
      "id": 32581670,
      "center": {
        "lat": 10.7900563,
        "lon": 106.6327771
      },
      "tags": {
        "highway": "residential",
        "lane_markings": "yes",
        "lanes": "2",
        "name": "Nguyễn Văn Tố",
        "surface": "asphalt"
      }
    },
    {
      "type": "way",
      "id": 32581671,
      "center": {
        "lat": 10.7926217,
        "lon": 106.6330752
      },
      "tags": {
        "addr:district": "Quan Tan Phu",
        "highway": "residential",
        "name": "Nguyễn Văn Tố"
      }
    },
    {
      "type": "way",
      "id": 32581676,
      "center": {
        "lat": 10.7924354,
        "lon": 106.6174165
      },
      "tags": {
        "highway": "residential",
        "name": "Đỗ Thừa Luông"
      }
    },
    {
      "type": "way",
      "id": 32581744,
      "center": {
        "lat": 10.7862315,
        "lon": 106.6235425
      },
      "tags": {
        "highway": "residential",
        "name": "Lê Vĩnh Hòa"
      }
    },
    {
      "type": "way",
      "id": 32581764,
      "center": {
        "lat": 10.808209,
        "lon": 106.6524531
      },
      "tags": {
        "highway": "residential"
      }
    },
    {
      "type": "way",
      "id": 32581797,
      "center": {
        "lat": 10.8075684,
        "lon": 106.6292971
      },
      "tags": {
        "highway": "residential",
        "name": "Nguyễn Đỗ Cung"
      }
    },
    {
      "type": "way",
      "id": 32581881,
      "center": {
        "lat": 10.7896365,
        "lon": 106.6520139
      },
      "tags": {
        "highway": "tertiary",
        "name": "Bảy Hiền"
      }
    },
    {
      "type": "way",
      "id": 32581901,
      "center": {
        "lat": 10.7822089,
        "lon": 106.6254073
      },
      "tags": {
        "highway": "residential",
        "name": "Lê Sao"
      }
    },
    {
      "type": "way",
      "id": 32581986,
      "center": {
        "lat": 10.7971452,
        "lon": 106.6229661
      },
      "tags": {
        "highway": "residential",
        "name": "Lê Đình Thám"
      }
    },
    {
      "type": "way",
      "id": 32582077,
      "center": {
        "lat": 10.8227061,
        "lon": 106.6408546
      },
      "tags": {
        "highway": "service"
      }
    },
    {
      "type": "way",
      "id": 32582124,
      "center": {
        "lat": 10.8034391,
        "lon": 106.6458422
      },
      "tags": {
        "highway": "residential",
        "name": "Đường C1"
      }
    },
    {
      "type": "way",
      "id": 32582143,
      "center": {
        "lat": 10.7980749,
        "lon": 106.6165837
      },
      "tags": {
        "highway": "residential",
        "name": "Dương Văn Dương"
      }
    },
    {
      "type": "way",
      "id": 32582173,
      "center": {
        "lat": 10.7796143,
        "lon": 106.6322847
      },
      "tags": {
        "highway": "secondary",
        "lanes": "2",
        "name": "Thoại Ngọc Hầu",
        "ref": "ĐH.2",
        "surface": "asphalt"
      }
    },
    {
      "type": "way",
      "id": 32582260,
      "center": {
        "lat": 10.7963192,
        "lon": 106.6324356
      },
      "tags": {
        "highway": "residential",
        "name": "Diệp Minh Châu"
      }
    },
    {
      "type": "way",
      "id": 32582360,
      "center": {
        "lat": 10.7861976,
        "lon": 106.6459556
      },
      "tags": {
        "highway": "residential",
        "name": "Đường Số 4"
      }
    },
    {
      "type": "way",
      "id": 32582380,
      "center": {
        "lat": 10.8249979,
        "lon": 106.634338
      },
      "tags": {
        "highway": "residential",
        "name": "Hẻm 75 Hoàng Bật Đạt",
        "name:en": "Alley 75 Hoang Bat Dat"
      }
    },
    {
      "type": "way",
      "id": 32582409,
      "center": {
        "lat": 10.7898248,
        "lon": 106.618871
      },
      "tags": {
        "highway": "tertiary",
        "name": "Tân Hương",
        "surface": "asphalt"
      }
    },
    {
      "type": "way",
      "id": 32582525,
      "center": {
        "lat": 10.7994772,
        "lon": 106.6296251
      },
      "tags": {
        "highway": "tertiary",
        "lane_markings": "yes",
        "lanes": "1",
        "name": "Đường Nguyễn Cửu Đàm",
        "oneway": "yes",
        "surface": "asphalt"
      }
    },
    {
      "type": "way",
      "id": 32582556,
      "center": {
        "lat": 10.7836081,
        "lon": 106.6224446
      },
      "tags": {
        "highway": "tertiary",
        "name": "Phạm Văn Xảo"
      }
    },
    {
      "type": "way",
      "id": 32582602,
      "center": {
        "lat": 10.7875519,
        "lon": 106.6297367
      },
      "tags": {
        "cycleway:both": "no",
        "highway": "tertiary",
        "name": "Vườn Lài",
        "surface": "asphalt"
      }
    },
    {
      "type": "way",
      "id": 32582607,
      "center": {
        "lat": 10.786671,
        "lon": 106.6236813
      },
      "tags": {
        "highway": "residential",
        "name": "Lê Quốc Trinh"
      }
    },
    {
      "type": "way",
      "id": 32582656,
      "center": {
        "lat": 10.8291714,
        "lon": 106.6372484
      },
      "tags": {
        "highway": "residential",
        "name": "Hẻm 80 Huỳnh Văn Nghệ",
        "name:en": "Alley 80 Huynh Van Nghe Road"
      }
    },
    {
      "type": "way",
      "id": 32583039,
      "center": {
        "lat": 10.7986573,
        "lon": 106.6502591
      },
      "tags": {
        "highway": "residential",
        "name": "Đường C22"
      }
    },
    {
      "type": "way",
      "id": 32583065,
      "center": {
        "lat": 10.8318053,
        "lon": 106.6292462
      },
      "tags": {
        "highway": "residential",
        "name": "Đông Hưng Thuận 10B"
      }
    },
    {
      "type": "way",
      "id": 32583077,
      "center": {
        "lat": 10.7929163,
        "lon": 106.6205728
      },
      "tags": {
        "highway": "tertiary",
        "name": "Tân Quý"
      }
    },
    {
      "type": "way",
      "id": 32583114,
      "center": {
        "lat": 10.7816909,
        "lon": 106.6230299
      },
      "tags": {
        "highway": "residential",
        "name": "Lê Lộ"
      }
    },
    {
      "type": "way",
      "id": 32583210,
      "center": {
        "lat": 10.7883919,
        "lon": 106.6442718
      },
      "tags": {
        "highway": "service",
        "name": "Hẻm 88/24 Phan Sào Nam"
      }
    },
    {
      "type": "way",
      "id": 32583213,
      "center": {
        "lat": 10.7915176,
        "lon": 106.658258
      },
      "tags": {
        "highway": "service",
        "motorcar": "destination",
        "name": "Hẻm 1036 Cách Mạng Tháng 8"
      }
    },
    {
      "type": "way",
      "id": 32583239,
      "center": {
        "lat": 10.8147572,
        "lon": 106.6296918
      },
      "tags": {
        "highway": "service"
      }
    },
    {
      "type": "way",
      "id": 32583251,
      "center": {
        "lat": 10.7935322,
        "lon": 106.6567584
      },
      "tags": {
        "highway": "tertiary",
        "name": "Lê Bình",
        "surface": "asphalt"
      }
    },
    {
      "type": "way",
      "id": 32583384,
      "center": {
        "lat": 10.7946169,
        "lon": 106.6501452
      },
      "tags": {
        "highway": "tertiary",
        "name": "Nguyễn Thái Bình"
      }
    },
    {
      "type": "way",
      "id": 32583408,
      "center": {
        "lat": 10.792907,
        "lon": 106.647623
      },
      "tags": {
        "highway": "residential",
        "name": "Trần Mai Ninh",
        "name:en": "Tran Mai Ninh"
      }
    },
    {
      "type": "way",
      "id": 32583472,
      "center": {
        "lat": 10.8210516,
        "lon": 106.6481457
      },
      "tags": {
        "access": "no",
        "highway": "service"
      }
    },
    {
      "type": "way",
      "id": 32583651,
      "center": {
        "lat": 10.7912899,
        "lon": 106.6364702
      },
      "tags": {
        "highway": "residential",
        "name": "Hẻm 94 Nguyễn Thái Học"
      }
    },
    {
      "type": "way",
      "id": 32583759,
      "center": {
        "lat": 10.7918573,
        "lon": 106.6254087
      },
      "tags": {
        "highway": "residential",
        "name": "Đường Nguyễn Ngọc Nhựt"
      }
    },
    {
      "type": "way",
      "id": 32583774,
      "center": {
        "lat": 10.8213149,
        "lon": 106.6372584
      },
      "tags": {
        "highway": "residential",
        "name": "Hẻm 87 Nguyễn Sỹ Sách",
        "name:en": "Alley 87 Nguyen Si Sach Road",
        "surface": "asphalt"
      }
    },
    {
      "type": "way",
      "id": 32583837,
      "center": {
        "lat": 10.8208305,
        "lon": 106.6385491
      },
      "tags": {
        "highway": "tertiary",
        "lanes": "2",
        "name": "Phạm Văn Bạch",
        "surface": "asphalt"
      }
    },
    {
      "type": "way",
      "id": 32584055,
      "center": {
        "lat": 10.7864303,
        "lon": 106.6484315
      },
      "tags": {
        "highway": "residential",
        "name": "Bùi Thế Mỹ"
      }
    },
    {
      "type": "way",
      "id": 32584105,
      "center": {
        "lat": 10.7899655,
        "lon": 106.6435903
      },
      "tags": {
        "highway": "residential",
        "name": "Hẻm 151 Đồng Đen"
      }
    },
    {
      "type": "way",
      "id": 32584160,
      "center": {
        "lat": 10.7913506,
        "lon": 106.6509834
      },
      "tags": {
        "highway": "residential",
        "name": "Hẻm 66 Tái Thiết"
      }
    },
    {
      "type": "way",
      "id": 32584266,
      "center": {
        "lat": 10.7983523,
        "lon": 106.6331455
      },
      "tags": {
        "highway": "service",
        "name": "Hẻm 47 Nguyễn Văn Săng",
        "name:en": "Alley 47 Nguyen Van Sang"
      }
    },
    {
      "type": "way",
      "id": 32584394,
      "center": {
        "lat": 10.7926813,
        "lon": 106.6443249
      },
      "tags": {
        "highway": "tertiary",
        "lanes": "2",
        "name": "Đường Đồng Đen",
        "name:en": "Dong Den",
        "surface": "asphalt"
      }
    },
    {
      "type": "way",
      "id": 32584456,
      "center": {
        "lat": 10.7853454,
        "lon": 106.6242013
      },
      "tags": {
        "highway": "residential",
        "name": "Lê Lộ"
      }
    },
    {
      "type": "way",
      "id": 32584506,
      "center": {
        "lat": 10.8037102,
        "lon": 106.6417746
      },
      "tags": {
        "highway": "residential",
        "name": "Ngô Bệ",
        "name:en": "Ngo Be"
      }
    },
    {
      "type": "way",
      "id": 32584870,
      "center": {
        "lat": 10.7913295,
        "lon": 106.6353364
      },
      "tags": {
        "highway": "residential",
        "lane_markings": "yes",
        "lanes": "2",
        "name": "Nguyễn Hậu",
        "old_name": "Gioan",
        "surface": "asphalt"
      }
    },
    {
      "type": "way",
      "id": 32584899,
      "center": {
        "lat": 10.7851638,
        "lon": 106.6215283
      },
      "tags": {
        "highway": "residential",
        "name": "Lê Lư"
      }
    },
    {
      "type": "way",
      "id": 32584925,
      "center": {
        "lat": 10.8010221,
        "lon": 106.6518234
      },
      "tags": {
        "highway": "residential",
        "name": "Hẻm 2 Quách Văn Tuấn"
      }
    },
    {
      "type": "way",
      "id": 32585077,
      "center": {
        "lat": 10.8183432,
        "lon": 106.6379659
      },
      "tags": {
        "highway": "residential",
        "name": "Hẻm 2 Phạm Văn Bạch"
      }
    },
    {
      "type": "way",
      "id": 32585104,
      "center": {
        "lat": 10.8123153,
        "lon": 106.6307404
      },
      "tags": {
        "highway": "residential",
        "lanes": "2",
        "name": "Chế Lan Viên",
        "surface": "asphalt"
      }
    },
    {
      "type": "way",
      "id": 32585130,
      "center": {
        "lat": 10.7832881,
        "lon": 106.6251352
      },
      "tags": {
        "highway": "tertiary",
        "lanes": "2",
        "name": "Nguyễn Sơn",
        "oneway": "yes",
        "surface": "asphalt"
      }
    },
    {
      "type": "way",
      "id": 32585371,
      "center": {
        "lat": 10.7914267,
        "lon": 106.6519047
      },
      "tags": {
        "highway": "residential",
        "name": "Tái Thiết"
      }
    },
    {
      "type": "way",
      "id": 32585374,
      "center": {
        "lat": 10.7907726,
        "lon": 106.6547733
      },
      "tags": {
        "highway": "residential",
        "name": "Hẻm 1073 Cách mạng tháng 8"
      }
    },
    {
      "type": "way",
      "id": 32585475,
      "center": {
        "lat": 10.8076775,
        "lon": 106.6402494
      },
      "tags": {
        "highway": "residential",
        "name": "Nguyễn Đức Thuận",
        "surface": "asphalt"
      }
    },
    {
      "type": "way",
      "id": 32585536,
      "center": {
        "lat": 10.7963368,
        "lon": 106.6469474
      },
      "tags": {
        "highway": "tertiary",
        "name": "Hoàng Hoa Thám",
        "surface": "asphalt"
      }
    },
    {
      "type": "way",
      "id": 32585567,
      "center": {
        "lat": 10.7879844,
        "lon": 106.6525126
      },
      "tags": {
        "highway": "residential",
        "name": "Tân Xuân"
      }
    },
    {
      "type": "way",
      "id": 32585799,
      "center": {
        "lat": 10.8133888,
        "lon": 106.6286746
      },
      "tags": {
        "highway": "residential",
        "name": "Đường số 15"
      }
    },
    {
      "type": "way",
      "id": 32585809,
      "center": {
        "lat": 10.7954115,
        "lon": 106.6265939
      },
      "tags": {
        "highway": "tertiary",
        "lanes": "2",
        "name": "Gò Dầu",
        "surface": "asphalt"
      }
    },
    {
      "type": "way",
      "id": 32586122,
      "center": {
        "lat": 10.7926129,
        "lon": 106.6420875
      },
      "tags": {
        "highway": "tertiary",
        "lane_markings": "yes",
        "lanes": "2",
        "name": "Bàu Cát",
        "oneway": "yes",
        "surface": "asphalt"
      }
    },
    {
      "type": "way",
      "id": 32586165,
      "center": {
        "lat": 10.7829511,
        "lon": 106.6484298
      },
      "tags": {
        "highway": "tertiary",
        "maxspeed": "30",
        "name": "Ni Sư Huỳnh Liên",
        "surface": "asphalt"
      }
    },
    {
      "type": "way",
      "id": 32586224,
      "center": {
        "lat": 10.8110485,
        "lon": 106.6324901
      },
      "tags": {
        "highway": "residential",
        "name": "Hẻm 763/2/14 Trường Chinh"
      }
    },
    {
      "type": "way",
      "id": 32586264,
      "center": {
        "lat": 10.8230932,
        "lon": 106.6362913
      },
      "tags": {
        "highway": "residential",
        "name": "Hẻm 154 Nguyễn Phúc Chu"
      }
    },
    {
      "type": "way",
      "id": 32586311,
      "center": {
        "lat": 10.8208128,
        "lon": 106.6285433
      },
      "tags": {
        "highway": "residential",
        "name": "Hẻm 909 Trường Chinh",
        "name:en": "Hem 909 Truong Chinh",
        "surface": "concrete"
      }
    },
    {
      "type": "way",
      "id": 32586390,
      "center": {
        "lat": 10.790142,
        "lon": 106.6421011
      },
      "tags": {
        "highway": "residential",
        "name": "Bàu Cát 7",
        "surface": "asphalt"
      }
    },
    {
      "type": "way",
      "id": 32586406,
      "center": {
        "lat": 10.8001125,
        "lon": 106.6502491
      },
      "tags": {
        "highway": "residential",
        "lanes": "2",
        "name": "Nguyễn Minh Hoàng",
        "surface": "asphalt"
      }
    },
    {
      "type": "way",
      "id": 32586449,
      "center": {
        "lat": 10.8042418,
        "lon": 106.6451377
      },
      "tags": {
        "highway": "residential",
        "name": "Hẻm 37 Đường C1"
      }
    },
    {
      "type": "way",
      "id": 32586475,
      "center": {
        "lat": 10.7932362,
        "lon": 106.626933
      },
      "tags": {
        "highway": "tertiary",
        "name": "Độc Lập",
        "surface": "asphalt"
      }
    },
    {
      "type": "way",
      "id": 32586601,
      "center": {
        "lat": 10.7816214,
        "lon": 106.6251824
      },
      "tags": {
        "highway": "tertiary",
        "name": "Hiền Vương",
        "oneway": "yes",
        "surface": "asphalt"
      }
    },
    {
      "type": "way",
      "id": 32586612,
      "center": {
        "lat": 10.8007787,
        "lon": 106.6480097
      },
      "tags": {
        "highway": "residential",
        "name": "Lê Trung Nghĩa"
      }
    },
    {
      "type": "way",
      "id": 32586703,
      "center": {
        "lat": 10.8183555,
        "lon": 106.6228995
      },
      "tags": {
        "highway": "residential",
        "name": "Đường CN5"
      }
    },
    {
      "type": "way",
      "id": 32586705,
      "center": {
        "lat": 10.8178408,
        "lon": 106.6244589
      },
      "tags": {
        "highway": "residential",
        "name": "Đường CN4"
      }
    },
    {
      "type": "way",
      "id": 32586713,
      "center": {
        "lat": 10.830623,
        "lon": 106.6377136
      },
      "tags": {
        "highway": "residential",
        "name": "Huỳnh Văn Nghệ",
        "name:en": "Huynh Van Nghe Road"
      }
    },
    {
      "type": "way",
      "id": 32586725,
      "center": {
        "lat": 10.806672,
        "lon": 106.6614554
      },
      "tags": {
        "highway": "tertiary",
        "lane_markings": "yes",
        "lanes": "2",
        "lit": "yes",
        "maxspeed": "50",
        "name": "Thăng Long",
        "name:en": "Thang Long",
        "sidewalk": "both",
        "sidewalk:both:surface": "concrete",
        "smoothness": "good",
        "surface": "asphalt"
      }
    },
    {
      "type": "way",
      "id": 32586896,
      "center": {
        "lat": 10.8039475,
        "lon": 106.6619917
      },
      "tags": {
        "highway": "secondary",
        "lane_markings": "yes",
        "lanes": "4",
        "lit": "yes",
        "maxspeed:type": "VN:urban",
        "name": "Phan Thúc Duyện",
        "oneway": "yes",
        "sidewalk": "right",
        "sidewalk:right:surface": "paving_stones",
        "smoothness": "excellent",
        "surface": "asphalt"
      }
    },
    {
      "type": "way",
      "id": 32586928,
      "center": {
        "lat": 10.7820802,
        "lon": 106.6376211
      },
      "tags": {
        "highway": "service",
        "name": "Hẻm 83 Thoại Ngọc Hầu",
        "surface": "asphalt"
      }
    },
    {
      "type": "way",
      "id": 32587171,
      "center": {
        "lat": 10.8043126,
        "lon": 106.6290636
      },
      "tags": {
        "highway": "residential",
        "name": "Đường Số 27"
      }
    },
    {
      "type": "way",
      "id": 32587213,
      "center": {
        "lat": 10.8185308,
        "lon": 106.6271438
      },
      "tags": {
        "highway": "residential",
        "name": "Đường Số 4",
        "name:en": "Duong So 4"
      }
    },
    {
      "type": "way",
      "id": 32587315,
      "center": {
        "lat": 10.7916247,
        "lon": 106.634029
      },
      "tags": {
        "highway": "residential",
        "lanes": "2",
        "name": "Nguyễn Xuân Khoát",
        "surface": "asphalt"
      }
    },
    {
      "type": "way",
      "id": 32587405,
      "center": {
        "lat": 10.7870913,
        "lon": 106.6523427
      },
      "tags": {
        "highway": "residential",
        "name": "Tân Thọ",
        "surface": "asphalt"
      }
    },
    {
      "type": "way",
      "id": 32587408,
      "center": {
        "lat": 10.7860807,
        "lon": 106.6316263
      },
      "tags": {
        "highway": "residential",
        "maxspeed": "50",
        "name": "Hẻm 76 Lê Văn Phan"
      }
    },
    {
      "type": "way",
      "id": 32587683,
      "center": {
        "lat": 10.7954612,
        "lon": 106.6405623
      },
      "tags": {
        "highway": "residential",
        "lane_markings": "yes",
        "lanes": "2",
        "name": "Ba Vân",
        "surface": "asphalt"
      }
    },
    {
      "type": "way",
      "id": 32587706,
      "center": {
        "lat": 10.7981427,
        "lon": 106.6502191
      },
      "tags": {
        "highway": "residential",
        "name": "Đường B6"
      }
    },
    {
      "type": "way",
      "id": 32587726,
      "center": {
        "lat": 10.7953335,
        "lon": 106.6363429
      },
      "tags": {
        "highway": "residential",
        "name": "Trần Hưng Đạo"
      }
    },
    {
      "type": "way",
      "id": 32587844,
      "center": {
        "lat": 10.7912648,
        "lon": 106.6203488
      },
      "tags": {
        "highway": "residential",
        "name": "Đô Đốc Lộc"
      }
    },
    {
      "type": "way",
      "id": 32587934,
      "center": {
        "lat": 10.791742,
        "lon": 106.6427413
      },
      "tags": {
        "highway": "tertiary",
        "name": "Bàu Cát 4"
      }
    },
    {
      "type": "way",
      "id": 32588106,
      "center": {
        "lat": 10.8076223,
        "lon": 106.6460744
      },
      "tags": {
        "highway": "residential",
        "name": "Văn Chung"
      }
    },
    {
      "type": "way",
      "id": 32588176,
      "center": {
        "lat": 10.8071678,
        "lon": 106.6320701
      },
      "tags": {
        "highway": "residential",
        "name": "Hẻm 42 Hồ Đắc Di"
      }
    },
    {
      "type": "way",
      "id": 32588479,
      "center": {
        "lat": 10.8028966,
        "lon": 106.6360979
      },
      "tags": {
        "highway": "tertiary_link",
        "name": "Tân Sơn Nhì",
        "name:en": "Tan Son Nhi"
      }
    },
    {
      "type": "way",
      "id": 32588729,
      "center": {
        "lat": 10.8134068,
        "lon": 106.6259088
      },
      "tags": {
        "highway": "residential",
        "name": "Đường D9",
        "name:en": "D9 Street"
      }
    },
    {
      "type": "way",
      "id": 32588772,
      "center": {
        "lat": 10.7868363,
        "lon": 106.6498949
      },
      "tags": {
        "highway": "residential",
        "motorcar": "destination",
        "name": "Hẻm 985 Lạc Long Quân"
      }
    },
    {
      "type": "way",
      "id": 32588801,
      "center": {
        "lat": 10.7797453,
        "lon": 106.6380419
      },
      "tags": {
        "fixme": "name",
        "highway": "residential",
        "name": "Đường Huỳnh Thiện Lộc",
        "surface": "asphalt"
      }
    },
    {
      "type": "way",
      "id": 32588977,
      "center": {
        "lat": 10.7903768,
        "lon": 106.6569602
      },
      "tags": {
        "highway": "tertiary",
        "name": "Bành Văn Trân"
      }
    },
    {
      "type": "way",
      "id": 32589058,
      "center": {
        "lat": 10.7811925,
        "lon": 106.6247829
      },
      "tags": {
        "highway": "residential",
        "name": "Nguyễn Chích"
      }
    },
    {
      "type": "way",
      "id": 33103457,
      "center": {
        "lat": 10.7760862,
        "lon": 106.6339508
      },
      "tags": {
        "highway": "secondary",
        "lanes": "2",
        "maxspeed": "60",
        "name": "Lũy Bán Bích",
        "name:en": "Duong Luy Ban Bich",
        "oneway": "yes",
        "surface": "asphalt"
      }
    },
    {
      "type": "way",
      "id": 33285442,
      "center": {
        "lat": 10.7854715,
        "lon": 106.6183745
      },
      "tags": {
        "highway": "secondary",
        "lanes": "2",
        "name": "Bình Long",
        "name:en": "Binh Long Road",
        "name:zh": "平隆路",
        "ref": "ĐH.3",
        "surface": "asphalt",
        "traffic_signals:direction": "forward"
      }
    },
    {
      "type": "way",
      "id": 33285446,
      "center": {
        "lat": 10.8130167,
        "lon": 106.6076687
      },
      "tags": {
        "bridge": "yes",
        "highway": "secondary",
        "layer": "1",
        "name": "Cầu Bưng",
        "oneway": "yes"
      }
    },
    {
      "type": "way",
      "id": 33285451,
      "center": {
        "lat": 10.8092472,
        "lon": 106.6149837
      },
      "tags": {
        "bridge": "yes",
        "highway": "secondary",
        "layer": "1",
        "name": "Lê Trọng Tấn",
        "name:en": "Le Trong Tan",
        "oneway": "yes"
      }
    },
    {
      "type": "way",
      "id": 33285453,
      "center": {
        "lat": 10.8078588,
        "lon": 106.6200931
      },
      "tags": {
        "highway": "secondary",
        "name": "Lê Trọng Tấn",
        "name:en": "Le Trong Tan",
        "oneway": "yes",
        "surface": "asphalt"
      }
    },
    {
      "type": "way",
      "id": 33285472,
      "center": {
        "lat": 10.8246435,
        "lon": 106.6278362
      },
      "tags": {
        "bridge": "yes",
        "bridge:name": "Cầu Tham Lương",
        "highway": "primary",
        "lanes": "3",
        "layer": "1",
        "maxspeed": "80",
        "name": "Cầu Tham Lương 2",
        "name:en": "Truong Chinh",
        "oneway": "yes",
        "surface": "asphalt"
      }
    },
    {
      "type": "way",
      "id": 33285480,
      "center": {
        "lat": 10.8297255,
        "lon": 106.6327223
      },
      "tags": {
        "bridge": "yes",
        "highway": "secondary",
        "lanes": "2",
        "layer": "1",
        "name": "Phan Huy Ích",
        "name:en": "Phan Huy Ich",
        "surface": "asphalt"
      }
    },
    {
      "type": "way",
      "id": 33285483,
      "center": {
        "lat": 10.8370585,
        "lon": 106.6364452
      },
      "tags": {
        "highway": "secondary",
        "lanes": "2",
        "name": "Phan Huy Ích",
        "name:en": "Phan Huy Ich",
        "surface": "asphalt"
      }
    },
    {
      "type": "way",
      "id": 35085677,
      "center": {
        "lat": 10.7919953,
        "lon": 106.662367
      },
      "tags": {
        "addr:city": "Ho Chi Minh City",
        "addr:district": "Tan Binh",
        "highway": "tertiary",
        "lanes": "3",
        "name": "Hoàng Sa",
        "oneway": "yes",
        "surface": "asphalt"
      }
    },
    {
      "type": "way",
      "id": 58651356,
      "center": {
        "lat": 10.7931794,
        "lon": 106.6594927
      },
      "tags": {
        "bridge": "yes",
        "highway": "tertiary",
        "layer": "1",
        "maxweight:signed": "no",
        "name": "Cầu Số 1",
        "oneway": "yes",
        "surface": "asphalt"
      }
    },
    {
      "type": "way",
      "id": 118695995,
      "center": {
        "lat": 10.7896077,
        "lon": 106.6378366
      },
      "tags": {
        "highway": "service",
        "name": "Hẻm 710 Đường Lũy Bán Bích"
      }
    },
    {
      "type": "way",
      "id": 118695996,
      "center": {
        "lat": 10.7895594,
        "lon": 106.6383152
      },
      "tags": {
        "highway": "service",
        "name": "Hẻm 710/53 Lũy Bán Bích"
      }
    },
    {
      "type": "way",
      "id": 118696126,
      "center": {
        "lat": 10.7870079,
        "lon": 106.639163
      },
      "tags": {
        "highway": "tertiary",
        "name": "Tân Thành"
      }
    },
    {
      "type": "way",
      "id": 118894313,
      "center": {
        "lat": 10.7997015,
        "lon": 106.6595847
      },
      "tags": {
        "highway": "residential",
        "motorcar": "destination",
        "name": "Hẻm 238 Hoàng Văn Thụ",
        "surface": "asphalt"
      }
    },
    {
      "type": "way",
      "id": 126759125,
      "center": {
        "lat": 10.800564,
        "lon": 106.6627015
      },
      "tags": {
        "alt_name": "Võ Tánh",
        "destination": "phường Bến Thành;Sài Gòn;Tân Định",
        "highway": "primary",
        "lane_markings": "yes",
        "lanes": "2",
        "lit": "yes",
        "maxspeed": "50",
        "name": "Hoàng Văn Thụ",
        "old_name": "Võ Tánh",
        "oneway": "yes",
        "sidewalk": "right",
        "sidewalk:right:surface": "paving_stones",
        "smoothness": "excellent",
        "surface": "asphalt"
      }
    },
    {
      "type": "way",
      "id": 126759142,
      "center": {
        "lat": 10.800824,
        "lon": 106.6584692
      },
      "tags": {
        "highway": "service",
        "oneway": "yes"
      }
    },
    {
      "type": "way",
      "id": 126759144,
      "center": {
        "lat": 10.8009499,
        "lon": 106.6622049
      },
      "tags": {
        "destination": "Nút Giao Phú Nhuận;Chùa Vĩnh Nghiêm",
        "highway": "primary_link",
        "lane_markings": "no",
        "maxspeed": "50",
        "oneway": "yes",
        "surface": "asphalt"
      }
    },
    {
      "type": "way",
      "id": 127306575,
      "center": {
        "lat": 10.8004619,
        "lon": 106.661351
      },
      "tags": {
        "alt_name": "Võ Tánh",
        "highway": "primary",
        "maxspeed:type": "VN:rural",
        "name": "Hoàng Văn Thụ",
        "name:en": "Hoang Van Thu",
        "old_name": "Võ Tánh",
        "oneway": "yes",
        "surface": "asphalt"
      }
    },
    {
      "type": "way",
      "id": 127306577,
      "center": {
        "lat": 10.8024853,
        "lon": 106.6599019
      },
      "tags": {
        "highway": "residential",
        "name": "Giải Phóng",
        "name:en": "Giai Phong"
      }
    },
    {
      "type": "way",
      "id": 127306578,
      "center": {
        "lat": 10.8015239,
        "lon": 106.6600653
      },
      "tags": {
        "highway": "service",
        "name": "Hẻm 9 Thăng Long",
        "surface": "asphalt"
      }
    },
    {
      "type": "way",
      "id": 138877181,
      "center": {
        "lat": 10.7934269,
        "lon": 106.6523687
      },
      "tags": {
        "highway": "primary",
        "name": "Trường Chinh",
        "oneway": "yes",
        "surface": "asphalt"
      }
    },
    {
      "type": "way",
      "id": 139214774,
      "center": {
        "lat": 10.7959772,
        "lon": 106.6551749
      },
      "tags": {
        "highway": "primary",
        "lanes": "2",
        "motorcar": "yes",
        "name": "Xuân Diệu",
        "oneway": "yes",
        "surface": "asphalt"
      }
    },
    {
      "type": "way",
      "id": 158347216,
      "center": {
        "lat": 10.7999833,
        "lon": 106.6589336
      },
      "tags": {
        "highway": "tertiary",
        "lanes": "2",
        "maxspeed:type": "VN:urban",
        "name": "Nguyễn Thái Bình",
        "surface": "asphalt"
      }
    },
    {
      "type": "way",
      "id": 179122338,
      "center": {
        "lat": 10.7992459,
        "lon": 106.6616063
      },
      "tags": {
        "highway": "secondary",
        "lanes": "2",
        "name": "Lê Văn Sỹ",
        "surface": "asphalt"
      }
    },
    {
      "type": "way",
      "id": 186584461,
      "center": {
        "lat": 10.8108561,
        "lon": 106.6495111
      },
      "tags": {
        "highway": "service"
      }
    },
    {
      "type": "way",
      "id": 186584464,
      "center": {
        "lat": 10.8099756,
        "lon": 106.6488586
      },
      "tags": {
        "highway": "service"
      }
    },
    {
      "type": "way",
      "id": 194311301,
      "center": {
        "lat": 10.8158586,
        "lon": 106.6156353
      },
      "tags": {
        "highway": "unclassified",
        "name": "Đường CN11",
        "oneway": "yes"
      }
    },
    {
      "type": "way",
      "id": 194311302,
      "center": {
        "lat": 10.8182858,
        "lon": 106.6172078
      },
      "tags": {
        "highway": "tertiary",
        "name": "Đường CN1"
      }
    },
    {
      "type": "way",
      "id": 194311304,
      "center": {
        "lat": 10.8140311,
        "lon": 106.6138421
      },
      "tags": {
        "highway": "unclassified",
        "name": "Đường CN8"
      }
    },
    {
      "type": "way",
      "id": 194311305,
      "center": {
        "lat": 10.8154179,
        "lon": 106.6154258
      },
      "tags": {
        "highway": "residential",
        "name": "Đường CN10"
      }
    },
    {
      "type": "way",
      "id": 194311307,
      "center": {
        "lat": 10.8173145,
        "lon": 106.6163461
      },
      "tags": {
        "highway": "unclassified",
        "name": "Đường CN12"
      }
    },
    {
      "type": "way",
      "id": 194312943,
      "center": {
        "lat": 10.8060074,
        "lon": 106.6089714
      },
      "tags": {
        "highway": "residential",
        "name": "Đường DC8"
      }
    },
    {
      "type": "way",
      "id": 194312944,
      "center": {
        "lat": 10.8088136,
        "lon": 106.6097371
      },
      "tags": {
        "highway": "residential",
        "name": "Đường CN11",
        "oneway": "yes"
      }
    },
    {
      "type": "way",
      "id": 194312945,
      "center": {
        "lat": 10.8092913,
        "lon": 106.6097756
      },
      "tags": {
        "highway": "residential",
        "name": "Đường CN6"
      }
    },
    {
      "type": "way",
      "id": 194312949,
      "center": {
        "lat": 10.8061581,
        "lon": 106.6106456
      },
      "tags": {
        "highway": "residential",
        "name": "Đường DC13"
      }
    },
    {
      "type": "way",
      "id": 194312950,
      "center": {
        "lat": 10.8082021,
        "lon": 106.6107594
      },
      "tags": {
        "highway": "residential",
        "name": "Đường CN13",
        "oneway": "yes"
      }
    },
    {
      "type": "way",
      "id": 194317276,
      "center": {
        "lat": 10.8088331,
        "lon": 106.6272003
      },
      "tags": {
        "highway": "residential",
        "name": "Đường Dương Đức Hiền"
      }
    },
    {
      "type": "way",
      "id": 194317280,
      "center": {
        "lat": 10.8038435,
        "lon": 106.6261776
      },
      "tags": {
        "highway": "residential",
        "name": "Đường Đỗ Nhuận"
      }
    },
    {
      "type": "way",
      "id": 194417415,
      "center": {
        "lat": 10.7880062,
        "lon": 106.6197339
      },
      "tags": {
        "cycleway:both": "no",
        "highway": "tertiary",
        "lane_markings": "no",
        "name": "Lê Thúc Hoạch",
        "oneway": "yes",
        "surface": "asphalt"
      }
    },
    {
      "type": "way",
      "id": 194417416,
      "center": {
        "lat": 10.7935404,
        "lon": 106.6198495
      },
      "tags": {
        "highway": "residential",
        "name": "Đô Đốc Lộc"
      }
    },
    {
      "type": "way",
      "id": 194417417,
      "center": {
        "lat": 10.8084346,
        "lon": 106.6323832
      },
      "tags": {
        "highway": "service",
        "motorcar": "destination",
        "name": "Hẻm 42/60 Đường Hồ Đắc Di"
      }
    },
    {
      "type": "way",
      "id": 194417419,
      "center": {
        "lat": 10.7889691,
        "lon": 106.6219903
      },
      "tags": {
        "cycleway:both": "no",
        "highway": "residential",
        "lanes": "2",
        "name": "Đàm Thận Huy",
        "surface": "asphalt"
      }
    },
    {
      "type": "way",
      "id": 194417420,
      "center": {
        "lat": 10.8031973,
        "lon": 106.6352672
      },
      "tags": {
        "highway": "residential",
        "name": "Hẻm 26 Tân Sơn Nhì"
      }
    },
    {
      "type": "way",
      "id": 195672062,
      "center": {
        "lat": 10.7897297,
        "lon": 106.6524288
      },
      "tags": {
        "highway": "secondary_link",
        "oneway": "yes",
        "surface": "asphalt"
      }
    },
    {
      "type": "way",
      "id": 195672066,
      "center": {
        "lat": 10.796484,
        "lon": 106.6569586
      },
      "tags": {
        "alt_name": "Võ Tánh",
        "highway": "primary",
        "lanes": "2",
        "name": "Hoàng Văn Thụ",
        "old_name": "Võ Tánh",
        "oneway": "yes",
        "surface": "asphalt"
      }
    },
    {
      "type": "way",
      "id": 196966081,
      "center": {
        "lat": 10.81298,
        "lon": 106.6625489
      },
      "tags": {
        "highway": "footway"
      }
    },
    {
      "type": "way",
      "id": 197125431,
      "center": {
        "lat": 10.8153464,
        "lon": 106.6615859
      },
      "tags": {
        "access": "private",
        "aeroway": "jet_bridge",
        "bridge": "yes",
        "highway": "footway",
        "level": "2"
      }
    },
    {
      "type": "way",
      "id": 197125444,
      "center": {
        "lat": 10.812793,
        "lon": 106.6614619
      },
      "tags": {
        "access": "private",
        "aeroway": "jet_bridge",
        "bridge": "yes",
        "highway": "footway",
        "level": "2"
      }
    },
    {
      "type": "way",
      "id": 197125451,
      "center": {
        "lat": 10.8140499,
        "lon": 106.6614904
      },
      "tags": {
        "access": "private",
        "aeroway": "jet_bridge",
        "bridge": "yes",
        "highway": "footway",
        "level": "2"
      }
    },
    {
      "type": "way",
      "id": 197125457,
      "center": {
        "lat": 10.8133839,
        "lon": 106.6614233
      },
      "tags": {
        "access": "private",
        "aeroway": "jet_bridge",
        "bridge": "yes",
        "highway": "footway",
        "level": "2"
      }
    },
    {
      "type": "way",
      "id": 197125477,
      "center": {
        "lat": 10.8161449,
        "lon": 106.6616423
      },
      "tags": {
        "access": "private",
        "aeroway": "jet_bridge",
        "bridge": "yes",
        "highway": "footway",
        "level": "2"
      }
    },
    {
      "type": "way",
      "id": 197125485,
      "center": {
        "lat": 10.8148265,
        "lon": 106.6616376
      },
      "tags": {
        "access": "private",
        "aeroway": "jet_bridge",
        "bridge": "yes",
        "highway": "footway",
        "level": "2"
      }
    },
    {
      "type": "way",
      "id": 197139988,
      "center": {
        "lat": 10.8125444,
        "lon": 106.6625531
      },
      "tags": {
        "access": "no",
        "highway": "service"
      }
    },
    {
      "type": "way",
      "id": 197140003,
      "center": {
        "lat": 10.8124404,
        "lon": 106.6620526
      },
      "tags": {
        "access": "no",
        "highway": "service"
      }
    },
    {
      "type": "way",
      "id": 197557661,
      "center": {
        "lat": 10.8055065,
        "lon": 106.661754
      },
      "tags": {
        "highway": "service",
        "name": "Hẻm 1 Nguyễn Cảnh Dị",
        "surface": "asphalt"
      }
    },
    {
      "type": "way",
      "id": 197557663,
      "center": {
        "lat": 10.8073353,
        "lon": 106.6632128
      },
      "tags": {
        "highway": "service",
        "service": "alley"
      }
    },
    {
      "type": "way",
      "id": 197557672,
      "center": {
        "lat": 10.8048524,
        "lon": 106.6626237
      },
      "tags": {
        "highway": "residential",
        "name": "Hẻm 12 Nguyễn Cảnh Dị"
      }
    },
    {
      "type": "way",
      "id": 197557673,
      "center": {
        "lat": 10.8089554,
        "lon": 106.6637329
      },
      "tags": {
        "highway": "service"
      }
    },
    {
      "type": "way",
      "id": 197557687,
      "center": {
        "lat": 10.8066942,
        "lon": 106.6621016
      },
      "tags": {
        "highway": "service",
        "name": "Hẻm 5 Nguyễn Văn Vĩnh"
      }
    },
    {
      "type": "way",
      "id": 197557689,
      "center": {
        "lat": 10.8052756,
        "lon": 106.6621303
      },
      "tags": {
        "highway": "residential",
        "maxspeed": "50",
        "name": "Nguyễn Cảnh Dị"
      }
    },
    {
      "type": "way",
      "id": 197557690,
      "center": {
        "lat": 10.8044657,
        "lon": 106.6631054
      },
      "tags": {
        "highway": "residential",
        "lane_markings": "yes",
        "lanes": "2",
        "lit": "yes",
        "maxspeed:type": "VN:urban",
        "name": "Hẻm 2 Phan Thúc Duyện",
        "sidewalk": "no",
        "smoothness": "good",
        "surface": "asphalt"
      }
    },
    {
      "type": "way",
      "id": 197557693,
      "center": {
        "lat": 10.8058127,
        "lon": 106.6636558
      },
      "tags": {
        "highway": "residential",
        "maxspeed": "50",
        "name": "Nguyễn Văn Mại"
      }
    },
    {
      "type": "way",
      "id": 197557703,
      "center": {
        "lat": 10.8066531,
        "lon": 106.6625208
      },
      "tags": {
        "highway": "service",
        "name": "Hẻm 1 Nguyễn Văn Vĩnh",
        "smoothness": "good",
        "surface": "asphalt"
      }
    },
    {
      "type": "way",
      "id": 197557708,
      "center": {
        "lat": 10.8054228,
        "lon": 106.662325
      },
      "tags": {
        "highway": "service",
        "name": "Hẻm 7 Nguyễn Cảnh Dị",
        "surface": "asphalt"
      }
    },
    {
      "type": "way",
      "id": 197557718,
      "center": {
        "lat": 10.8054546,
        "lon": 106.6630511
      },
      "tags": {
        "highway": "service",
        "name": "Hẻm 11 Nguyễn Văn Mại",
        "service": "alley"
      }
    },
    {
      "type": "way",
      "id": 197557721,
      "center": {
        "lat": 10.8075076,
        "lon": 106.6630943
      },
      "tags": {
        "highway": "service",
        "name": "Hẻm 25 Hậu Giang",
        "service": "alley"
      }
    },
    {
      "type": "way",
      "id": 197690821,
      "center": {
        "lat": 10.7980692,
        "lon": 106.6523231
      },
      "tags": {
        "highway": "residential",
        "junction": "roundabout",
        "oneway": "yes"
      }
    },
    {
      "type": "way",
      "id": 197690823,
      "center": {
        "lat": 10.7976893,
        "lon": 106.6501837
      },
      "tags": {
        "highway": "residential",
        "lanes": "2",
        "name": "Hoàng Kế Viêm",
        "surface": "asphalt"
      }
    },
    {
      "type": "way",
      "id": 197690824,
      "center": {
        "lat": 10.8037898,
        "lon": 106.6597715
      },
      "tags": {
        "highway": "service",
        "name": "Hẻm 5 Đồ Sơn"
      }
    },
    {
      "type": "way",
      "id": 197690826,
      "center": {
        "lat": 10.7994851,
        "lon": 106.6527104
      },
      "tags": {
        "highway": "service",
        "name": "Hẻm 27 Quách Văn Tuấn"
      }
    },
    {
      "type": "way",
      "id": 197690828,
      "center": {
        "lat": 10.7976813,
        "lon": 106.6481426
      },
      "tags": {
        "highway": "service",
        "name": "Hẻm 81 Nguyễn Bá Tuyển"
      }
    },
    {
      "type": "way",
      "id": 197690829,
      "center": {
        "lat": 10.7966749,
        "lon": 106.648242
      },
      "tags": {
        "highway": "residential",
        "lane_markings": "no",
        "name": "Đường Thép Mới",
        "surface": "asphalt"
      }
    },
    {
      "type": "way",
      "id": 197690830,
      "center": {
        "lat": 10.8038164,
        "lon": 106.6602156
      },
      "tags": {
        "highway": "service",
        "name": "Hẻm 3 Đồ Sơn"
      }
    },
    {
      "type": "way",
      "id": 197690831,
      "center": {
        "lat": 10.7988916,
        "lon": 106.6479564
      },
      "tags": {
        "highway": "residential",
        "name": "Nguyễn Bá Tuyển",
        "surface": "asphalt"
      }
    },
    {
      "type": "way",
      "id": 197690832,
      "center": {
        "lat": 10.7980097,
        "lon": 106.6485607
      },
      "tags": {
        "highway": "residential",
        "name": "Đường C27"
      }
    },
    {
      "type": "way",
      "id": 197690834,
      "center": {
        "lat": 10.8040082,
        "lon": 106.6591261
      },
      "tags": {
        "highway": "service",
        "name": "Hẻm 19 Sầm Sơn"
      }
    },
    {
      "type": "way",
      "id": 197690836,
      "center": {
        "lat": 10.7992021,
        "lon": 106.6511825
      },
      "tags": {
        "highway": "service"
      }
    },
    {
      "type": "way",
      "id": 197690839,
      "center": {
        "lat": 10.7972003,
        "lon": 106.6499501
      },
      "tags": {
        "highway": "service",
        "name": "Hẻm 260 Nguyễn Thái Bình"
      }
    },
    {
      "type": "way",
      "id": 197690841,
      "center": {
        "lat": 10.7992463,
        "lon": 106.648922
      },
      "tags": {
        "highway": "service",
        "name": "Hẻm 42 Nguyễn Minh Hoàng"
      }
    },
    {
      "type": "way",
      "id": 197690843,
      "center": {
        "lat": 10.8080857,
        "lon": 106.6609826
      },
      "tags": {
        "access": "private",
        "highway": "service"
      }
    },
    {
      "type": "way",
      "id": 197690846,
      "center": {
        "lat": 10.7976136,
        "lon": 106.649976
      },
      "tags": {
        "highway": "service"
      }
    },
    {
      "type": "way",
      "id": 197690847,
      "center": {
        "lat": 10.8031564,
        "lon": 106.6601819
      },
      "tags": {
        "addr:city": "P.4",
        "addr:district": "Tan Binh",
        "highway": "residential",
        "name": "Ba Vì"
      }
    },
    {
      "type": "way",
      "id": 197690848,
      "center": {
        "lat": 10.8011506,
        "lon": 106.6482017
      },
      "tags": {
        "highway": "residential",
        "name": "Đường D52"
      }
    },
    {
      "type": "way",
      "id": 197690851,
      "center": {
        "lat": 10.8037572,
        "lon": 106.6605671
      },
      "tags": {
        "highway": "service",
        "name": "Hẻm 1 Đồ Sơn"
      }
    },
    {
      "type": "way",
      "id": 197690852,
      "center": {
        "lat": 10.7963721,
        "lon": 106.6513401
      },
      "tags": {
        "highway": "service",
        "name": "Hẻm 1 Trương Hoàng Thanh"
      }
    },
    {
      "type": "way",
      "id": 197690853,
      "center": {
        "lat": 10.8005433,
        "lon": 106.6486627
      },
      "tags": {
        "highway": "service",
        "name": "Hẻm 27 Nguyễn Minh Hoàng"
      }
    },
    {
      "type": "way",
      "id": 197690854,
      "center": {
        "lat": 10.7971469,
        "lon": 106.6481538
      },
      "tags": {
        "highway": "residential",
        "name": "Lê Duy Nhuận"
      }
    },
    {
      "type": "way",
      "id": 197690856,
      "center": {
        "lat": 10.7991816,
        "lon": 106.6484415
      },
      "tags": {
        "highway": "service"
      }
    },
    {
      "type": "way",
      "id": 197690857,
      "center": {
        "lat": 10.8006146,
        "lon": 106.649109
      },
      "tags": {
        "highway": "service"
      }
    },
    {
      "type": "way",
      "id": 197690858,
      "center": {
        "lat": 10.7991166,
        "lon": 106.6508799
      },
      "tags": {
        "highway": "residential",
        "name": "Đường C18"
      }
    },
    {
      "type": "way",
      "id": 197690859,
      "center": {
        "lat": 10.7978631,
        "lon": 106.6475168
      },
      "tags": {
        "highway": "service",
        "name": "Hẻm 30 Hoàng Hoa Thám"
      }
    },
    {
      "type": "way",
      "id": 197690860,
      "center": {
        "lat": 10.8034856,
        "lon": 106.6604665
      },
      "tags": {
        "highway": "residential",
        "name": "Hẻm 61 Thăng Long"
      }
    },
    {
      "type": "way",
      "id": 197690861,
      "center": {
        "lat": 10.8090382,
        "lon": 106.6604647
      },
      "tags": {
        "access": "private",
        "highway": "service"
      }
    },
    {
      "type": "way",
      "id": 197690864,
      "center": {
        "lat": 10.8033145,
        "lon": 106.6590826
      },
      "tags": {
        "highway": "service",
        "name": "Hẻm 47 Thăng Long"
      }
    },
    {
      "type": "way",
      "id": 197690865,
      "center": {
        "lat": 10.8013497,
        "lon": 106.6486732
      },
      "tags": {
        "highway": "service",
        "name": "Hẻm 161 Cộng Hòa",
        "surface": "asphalt"
      }
    },
    {
      "type": "way",
      "id": 197690866,
      "center": {
        "lat": 10.7982983,
        "lon": 106.6526123
      },
      "tags": {
        "highway": "service"
      }
    },
    {
      "type": "way",
      "id": 197690868,
      "center": {
        "lat": 10.7986863,
        "lon": 106.6511225
      },
      "tags": {
        "highway": "service"
      }
    },
    {
      "type": "way",
      "id": 197690869,
      "center": {
        "lat": 10.7992613,
        "lon": 106.648769
      },
      "tags": {
        "highway": "service",
        "name": "Hẻm 42 Nguyễn Minh Hoàng"
      }
    },
    {
      "type": "way",
      "id": 197690870,
      "center": {
        "lat": 10.7973254,
        "lon": 106.6488696
      },
      "tags": {
        "highway": "service",
        "name": "Hẻm 25 Lê Duy Nhuận"
      }
    },
    {
      "type": "way",
      "id": 197690872,
      "center": {
        "lat": 10.7988565,
        "lon": 106.6546058
      },
      "tags": {
        "highway": "service"
      }
    },
    {
      "type": "way",
      "id": 197690874,
      "center": {
        "lat": 10.8040534,
        "lon": 106.6605809
      },
      "tags": {
        "highway": "residential",
        "name": "Đồ Sơn"
      }
    },
    {
      "type": "way",
      "id": 197690875,
      "center": {
        "lat": 10.7985646,
        "lon": 106.6514826
      },
      "tags": {
        "highway": "service"
      }
    },
    {
      "type": "way",
      "id": 197690877,
      "center": {
        "lat": 10.7969935,
        "lon": 106.649749
      },
      "tags": {
        "highway": "service"
      }
    },
    {
      "type": "way",
      "id": 197690879,
      "center": {
        "lat": 10.7960679,
        "lon": 106.6508946
      },
      "tags": {
        "highway": "residential",
        "name": "Hẻm 248 Nguyễn Thái Bình"
      }
    },
    {
      "type": "way",
      "id": 197690880,
      "center": {
        "lat": 10.7962318,
        "lon": 106.651406
      },
      "tags": {
        "highway": "residential",
        "lane_markings": "no",
        "name": "Đường Trương Hoàng Thanh",
        "surface": "asphalt"
      }
    },
    {
      "type": "way",
      "id": 197690881,
      "center": {
        "lat": 10.7990807,
        "lon": 106.6492676
      },
      "tags": {
        "highway": "service",
        "name": "Hẻm 58 Nguyễn Minh Hoàng"
      }
    },
    {
      "type": "way",
      "id": 197690884,
      "center": {
        "lat": 10.7999104,
        "lon": 106.652743
      },
      "tags": {
        "highway": "residential"
      }
    },
    {
      "type": "way",
      "id": 197690885,
      "center": {
        "lat": 10.7968831,
        "lon": 106.6503301
      },
      "tags": {
        "highway": "service",
        "surface": "asphalt"
      }
    },
    {
      "type": "way",
      "id": 197690886,
      "center": {
        "lat": 10.8004456,
        "lon": 106.649525
      },
      "tags": {
        "highway": "residential",
        "lane_markings": "no",
        "name": "Hẻm 65 Nguyễn Minh Hoàng",
        "surface": "asphalt"
      }
    },
    {
      "type": "way",
      "id": 197690887,
      "center": {
        "lat": 10.7982784,
        "lon": 106.6486004
      },
      "tags": {
        "highway": "service",
        "service": "alley"
      }
    },
    {
      "type": "way",
      "id": 197690888,
      "center": {
        "lat": 10.7972442,
        "lon": 106.6506743
      },
      "tags": {
        "highway": "residential",
        "name": "Đường C18"
      }
    },
    {
      "type": "way",
      "id": 197690889,
      "center": {
        "lat": 10.7977275,
        "lon": 106.6512599
      },
      "tags": {
        "highway": "residential",
        "name": "Hoàng Kế Viêm",
        "oneway": "no"
      }
    },
    {
      "type": "way",
      "id": 197690891,
      "center": {
        "lat": 10.801188,
        "lon": 106.6496077
      },
      "tags": {
        "highway": "residential",
        "lanes": "2",
        "name": "Đường A4",
        "surface": "asphalt"
      }
    },
    {
      "type": "way",
      "id": 197690893,
      "center": {
        "lat": 10.7971818,
        "lon": 106.650229
      },
      "tags": {
        "highway": "service",
        "surface": "asphalt"
      }
    },
    {
      "type": "way",
      "id": 197690894,
      "center": {
        "lat": 10.7959118,
        "lon": 106.6519215
      },
      "tags": {
        "highway": "service",
        "name": "Hẻm 339 Nguyễn Thái Bình"
      }
    },
    {
      "type": "way",
      "id": 197690895,
      "center": {
        "lat": 10.7989649,
        "lon": 106.6519526
      },
      "tags": {
        "highway": "service"
      }
    },
    {
      "type": "way",
      "id": 197690896,
      "center": {
        "lat": 10.7974322,
        "lon": 106.6496637
      },
      "tags": {
        "highway": "service"
      }
    },
    {
      "type": "way",
      "id": 197690898,
      "center": {
        "lat": 10.810408,
        "lon": 106.6610868
      },
      "tags": {
        "access": "private",
        "highway": "service"
      }
    },
    {
      "type": "way",
      "id": 197690900,
      "center": {
        "lat": 10.7981482,
        "lon": 106.6513097
      },
      "tags": {
        "highway": "residential",
        "name": "Đường B6"
      }
    },
    {
      "type": "way",
      "id": 197690902,
      "center": {
        "lat": 10.7977056,
        "lon": 106.6476794
      },
      "tags": {
        "highway": "service"
      }
    },
    {
      "type": "way",
      "id": 197690903,
      "center": {
        "lat": 10.8024591,
        "lon": 106.6562904
      },
      "tags": {
        "highway": "service",
        "name": "Hẻm 42 Cộng Hòa",
        "surface": "asphalt"
      }
    },
    {
      "type": "way",
      "id": 197690904,
      "center": {
        "lat": 10.7959232,
        "lon": 106.650065
      },
      "tags": {
        "highway": "service",
        "name": "Hẻm 260 Nguyễn Thái Bình"
      }
    },
    {
      "type": "way",
      "id": 197690907,
      "center": {
        "lat": 10.8092141,
        "lon": 106.6614583
      },
      "tags": {
        "access": "no",
        "highway": "service"
      }
    },
    {
      "type": "way",
      "id": 197690908,
      "center": {
        "lat": 10.8037639,
        "lon": 106.6590173
      },
      "tags": {
        "highway": "service",
        "name": "Hẻm 28 Ba Vì",
        "surface": "asphalt"
      }
    },
    {
      "type": "way",
      "id": 197690909,
      "center": {
        "lat": 10.7991925,
        "lon": 106.6497157
      },
      "tags": {
        "highway": "residential",
        "lanes": "2",
        "lit": "yes",
        "name": "Đường A4",
        "surface": "asphalt"
      }
    },
    {
      "type": "way",
      "id": 197690910,
      "center": {
        "lat": 10.7965153,
        "lon": 106.6495609
      },
      "tags": {
        "highway": "service",
        "name": "Hẻm 260 Nguyễn Thái Bình"
      }
    },
    {
      "type": "way",
      "id": 197690911,
      "center": {
        "lat": 10.8013775,
        "lon": 106.6477788
      },
      "tags": {
        "highway": "residential",
        "name": "Hẻm 134 Hoàng Hoa Thám"
      }
    },
    {
      "type": "way",
      "id": 197690912,
      "center": {
        "lat": 10.8078513,
        "lon": 106.6566796
      },
      "tags": {
        "highway": "service",
        "name": "Hẻm 6 Đồ Sơn",
        "surface": "asphalt"
      }
    },
    {
      "type": "way",
      "id": 197690913,
      "center": {
        "lat": 10.7992841,
        "lon": 106.6483935
      },
      "tags": {
        "highway": "service",
        "name": "Hẻm 26 Nguyễn Minh Hoàng"
      }
    },
    {
      "type": "way",
      "id": 197690914,
      "center": {
        "lat": 10.797044,
        "lon": 106.6504754
      },
      "tags": {
        "highway": "residential",
        "lane_markings": "no",
        "name": "Hẻm 22 Trương Hoàng Thanh",
        "surface": "asphalt"
      }
    },
    {
      "type": "way",
      "id": 197690915,
      "center": {
        "lat": 10.7973969,
        "lon": 106.6485816
      },
      "tags": {
        "highway": "service",
        "name": "Hẻm 21 Lê Duy Nhuận"
      }
    },
    {
      "type": "way",
      "id": 197690918,
      "center": {
        "lat": 10.7964916,
        "lon": 106.6499144
      },
      "tags": {
        "highway": "service",
        "name": "Hẻm 32 Trương Hoàng Thanh"
      }
    },
    {
      "type": "way",
      "id": 197803936,
      "center": {
        "lat": 10.8021729,
        "lon": 106.6508996
      },
      "tags": {
        "highway": "residential",
        "name": "Hẻm 196 Cộng Hòa"
      }
    },
    {
      "type": "way",
      "id": 197803937,
      "center": {
        "lat": 10.8030703,
        "lon": 106.657744
      },
      "tags": {
        "highway": "residential",
        "name": "Hẻm 72 Giải Phóng"
      }
    },
    {
      "type": "way",
      "id": 197803941,
      "center": {
        "lat": 10.8011258,
        "lon": 106.6425039
      },
      "tags": {
        "highway": "residential",
        "name": "Núi Thành"
      }
    },
    {
      "type": "way",
      "id": 197803944,
      "center": {
        "lat": 10.7995399,
        "lon": 106.6460122
      },
      "tags": {
        "highway": "service",
        "name": "Hẻm 19/62 Hoàng Hoa Thám"
      }
    },
    {
      "type": "way",
      "id": 197803945,
      "center": {
        "lat": 10.8072571,
        "lon": 106.6455892
      },
      "tags": {
        "highway": "service",
        "service": "alley"
      }
    },
    {
      "type": "way",
      "id": 197803948,
      "center": {
        "lat": 10.8012777,
        "lon": 106.660094
      },
      "tags": {
        "highway": "service",
        "name": "Hẻm 1 Thăng Long",
        "surface": "asphalt"
      }
    },
    {
      "type": "way",
      "id": 197803951,
      "center": {
        "lat": 10.8071713,
        "lon": 106.6489399
      },
      "tags": {
        "highway": "residential"
      }
    },
    {
      "type": "way",
      "id": 197803953,
      "center": {
        "lat": 10.8120065,
        "lon": 106.6333279
      },
      "tags": {
        "access": "no",
        "highway": "primary",
        "lanes": "3",
        "lit": "yes",
        "maxspeed": "80",
        "motorcycle": "no",
        "name": "Trường Chinh",
        "oneway": "yes",
        "surface": "asphalt"
      }
    },
    {
      "type": "way",
      "id": 197803955,
      "center": {
        "lat": 10.8026879,
        "lon": 106.650565
      },
      "tags": {
        "highway": "service",
        "service": "alley"
      }
    },
    {
      "type": "way",
      "id": 197803957,
      "center": {
        "lat": 10.8048668,
        "lon": 106.6354311
      },
      "tags": {
        "highway": "primary",
        "name": "Trường Chinh",
        "oneway": "yes",
        "surface": "asphalt"
      }
    },
    {
      "type": "way",
      "id": 197803959,
      "center": {
        "lat": 10.8002736,
        "lon": 106.6459989
      },
      "tags": {
        "highway": "service",
        "motorcar": "destination",
        "name": "Hẻm 27 Đồng Xoài"
      }
    },
    {
      "type": "way",
      "id": 197803961,
      "center": {
        "lat": 10.8085911,
        "lon": 106.645057
      },
      "tags": {
        "highway": "residential",
        "name": "Hẻm 72 Văn Chung"
      }
    },
    {
      "type": "way",
      "id": 197803963,
      "center": {
        "lat": 10.8023394,
        "lon": 106.6501682
      },
      "tags": {
        "highway": "residential",
        "name": "Hẻm 232 Cộng Hòa"
      }
    },
    {
      "type": "way",
      "id": 197803965,
      "center": {
        "lat": 10.8011412,
        "lon": 106.6464736
      },
      "tags": {
        "highway": "service"
      }
    },
    {
      "type": "way",
      "id": 197803966,
      "center": {
        "lat": 10.8030501,
        "lon": 106.6445789
      },
      "tags": {
        "highway": "service",
        "service": "alley"
      }
    },
    {
      "type": "way",
      "id": 197803967,
      "center": {
        "lat": 10.7979908,
        "lon": 106.6445286
      },
      "tags": {
        "highway": "service"
      }
    },
    {
      "type": "way",
      "id": 197803968,
      "center": {
        "lat": 10.8013334,
        "lon": 106.6582639
      },
      "tags": {
        "highway": "residential",
        "name": "Hẻm 108 Cộng Hòa",
        "surface": "asphalt"
      }
    },
    {
      "type": "way",
      "id": 197803969,
      "center": {
        "lat": 10.8024852,
        "lon": 106.6577745
      },
      "tags": {
        "highway": "residential",
        "name": "Hẻm 51 Giải Phóng"
      }
    },
    {
      "type": "way",
      "id": 197803970,
      "center": {
        "lat": 10.8010924,
        "lon": 106.66147
      },
      "tags": {
        "highway": "service",
        "motor_vehicle": "no",
        "motorcycle": "yes",
        "service": "alley",
        "surface": "asphalt"
      }
    },
    {
      "type": "way",
      "id": 197803971,
      "center": {
        "lat": 10.803456,
        "lon": 106.6439598
      },
      "tags": {
        "highway": "service",
        "service": "alley"
      }
    },
    {
      "type": "way",
      "id": 197803972,
      "center": {
        "lat": 10.8055295,
        "lon": 106.6433603
      },
      "tags": {
        "highway": "residential",
        "name": "Hẻm 41 Mai Lão Bạng"
      }
    },
    {
      "type": "way",
      "id": 197803973,
      "center": {
        "lat": 10.7999559,
        "lon": 106.6459813
      },
      "tags": {
        "highway": "service"
      }
    },
    {
      "type": "way",
      "id": 197803974,
      "center": {
        "lat": 10.8047236,
        "lon": 106.6460556
      },
      "tags": {
        "highway": "residential",
        "name": "Nguyễn Quang Bích"
      }
    },
    {
      "type": "way",
      "id": 197803975,
      "center": {
        "lat": 10.8027671,
        "lon": 106.63857
      },
      "tags": {
        "highway": "residential"
      }
    },
    {
      "type": "way",
      "id": 197803976,
      "center": {
        "lat": 10.797412,
        "lon": 106.6467287
      },
      "tags": {
        "highway": "service"
      }
    },
    {
      "type": "way",
      "id": 197803977,
      "center": {
        "lat": 10.8006834,
        "lon": 106.64667
      },
      "tags": {
        "highway": "service",
        "name": "Hẻm 20 Đồng Xoài"
      }
    },
    {
      "type": "way",
      "id": 197803978,
      "center": {
        "lat": 10.7982343,
        "lon": 106.6445029
      },
      "tags": {
        "highway": "service",
        "name": "Hẻm 304 Trường Chinh"
      }
    },
    {
      "type": "way",
      "id": 197803979,
      "center": {
        "lat": 10.8064333,
        "lon": 106.645139
      },
      "tags": {
        "highway": "residential",
        "name": "Hẻm 58 Trần Văn Dư"
      }
    },
    {
      "type": "way",
      "id": 197803980,
      "center": {
        "lat": 10.8057107,
        "lon": 106.6465274
      },
      "tags": {
        "highway": "residential",
        "name": "Đường C3"
      }
    },
    {
      "type": "way",
      "id": 197803981,
      "center": {
        "lat": 10.8012986,
        "lon": 106.6616198
      },
      "tags": {
        "highway": "service",
        "name": "Hẻm 2 Trần Quốc Hoàn",
        "service": "alley",
        "surface": "asphalt"
      }
    },
    {
      "type": "way",
      "id": 197803982,
      "center": {
        "lat": 10.7974644,
        "lon": 106.6464407
      },
      "tags": {
        "highway": "service",
        "name": "Hẻm 230/18 Trường Chinh"
      }
    },
    {
      "type": "way",
      "id": 197803984,
      "center": {
        "lat": 10.8042588,
        "lon": 106.6436939
      },
      "tags": {
        "highway": "service",
        "service": "alley"
      }
    },
    {
      "type": "way",
      "id": 197803985,
      "center": {
        "lat": 10.7978927,
        "lon": 106.6466446
      },
      "tags": {
        "highway": "service"
      }
    },
    {
      "type": "way",
      "id": 197803987,
      "center": {
        "lat": 10.80632,
        "lon": 106.6473971
      },
      "tags": {
        "highway": "residential",
        "name": "Trần Văn Danh",
        "old_name": "Đường C2"
      }
    },
    {
      "type": "way",
      "id": 197803988,
      "center": {
        "lat": 10.7988776,
        "lon": 106.6459116
      },
      "tags": {
        "highway": "service"
      }
    },
    {
      "type": "way",
      "id": 197803989,
      "center": {
        "lat": 10.7994438,
        "lon": 106.6448364
      },
      "tags": {
        "highway": "service",
        "name": "Hẻm 2/1 Bình Giã"
      }
    },
    {
      "type": "way",
      "id": 197803990,
      "center": {
        "lat": 10.7981571,
        "lon": 106.6446653
      },
      "tags": {
        "highway": "service"
      }
    },
    {
      "type": "way",
      "id": 197803991,
      "center": {
        "lat": 10.7983568,
        "lon": 106.6463244
      },
      "tags": {
        "highway": "residential",
        "name": "Hẻm 17 Đường Hoàng Hoa Thám"
      }
    },
    {
      "type": "way",
      "id": 197803992,
      "center": {
        "lat": 10.8032296,
        "lon": 106.6452729
      },
      "tags": {
        "highway": "residential",
        "name": "Hẻm 15 Đường C1"
      }
    },
    {
      "type": "way",
      "id": 197803993,
      "center": {
        "lat": 10.8001157,
        "lon": 106.645235
      },
      "tags": {
        "highway": "service"
      }
    },
    {
      "type": "way",
      "id": 197803994,
      "center": {
        "lat": 10.8047952,
        "lon": 106.6432816
      },
      "tags": {
        "highway": "service",
        "name": "Hẻm 65/7 Đường Trần Văn Dư",
        "service": "alley"
      }
    },
    {
      "type": "way",
      "id": 197803995,
      "center": {
        "lat": 10.8053886,
        "lon": 106.6452858
      },
      "tags": {
        "highway": "residential",
        "name": "Hẻm 1 Cù Chính Lan"
      }
    },
    {
      "type": "way",
      "id": 197803996,
      "center": {
        "lat": 10.8006008,
        "lon": 106.6456782
      },
      "tags": {
        "highway": "service"
      }
    },
    {
      "type": "way",
      "id": 197803997,
      "center": {
        "lat": 10.8022487,
        "lon": 106.6509448
      },
      "tags": {
        "highway": "service",
        "service": "alley"
      }
    },
    {
      "type": "way",
      "id": 197803998,
      "center": {
        "lat": 10.8006879,
        "lon": 106.6438534
      },
      "tags": {
        "highway": "residential",
        "name": "Bàu Bàng"
      }
    },
    {
      "type": "way",
      "id": 197803999,
      "center": {
        "lat": 10.7985827,
        "lon": 106.6464515
      },
      "tags": {
        "highway": "service"
      }
    },
    {
      "type": "way",
      "id": 197804000,
      "center": {
        "lat": 10.806765,
        "lon": 106.6462419
      },
      "tags": {
        "highway": "residential",
        "name": "Nguyễn Hiến Lê"
      }
    },
    {
      "type": "way",
      "id": 197804001,
      "center": {
        "lat": 10.8073036,
        "lon": 106.6451121
      },
      "tags": {
        "highway": "residential",
        "name": "Hẻm 48 Nguyễn Hiến Lê"
      }
    },
    {
      "type": "way",
      "id": 197804002,
      "center": {
        "lat": 10.7968091,
        "lon": 106.6466788
      },
      "tags": {
        "highway": "service",
        "name": "Hẻm 168 Trường Chinh"
      }
    },
    {
      "type": "way",
      "id": 197804004,
      "center": {
        "lat": 10.8028766,
        "lon": 106.6452996
      },
      "tags": {
        "highway": "residential",
        "name": "Hẻm 7 Đường C1"
      }
    },
    {
      "type": "way",
      "id": 197804005,
      "center": {
        "lat": 10.800579,
        "lon": 106.6461522
      },
      "tags": {
        "highway": "residential",
        "name": "Đồng Xoài",
        "name:ko": "동쏘아이"
      }
    },
    {
      "type": "way",
      "id": 197804006,
      "center": {
        "lat": 10.7976418,
        "lon": 106.6455886
      },
      "tags": {
        "highway": "service",
        "motorcar": "no",
        "name": "Hẻm 240 Trường Chinh"
      }
    },
    {
      "type": "way",
      "id": 197804007,
      "center": {
        "lat": 10.80745,
        "lon": 106.6488354
      },
      "tags": {
        "highway": "residential"
      }
    },
    {
      "type": "way",
      "id": 197804008,
      "center": {
        "lat": 10.8029733,
        "lon": 106.6429054
      },
      "tags": {
        "highway": "residential",
        "name": "Hẻm 14/13 Thân Nhân Trung"
      }
    },
    {
      "type": "way",
      "id": 197804010,
      "center": {
        "lat": 10.8017823,
        "lon": 106.6593254
      },
      "tags": {
        "highway": "residential",
        "name": "Hẻm 78K Cộng Hòa"
      }
    },
    {
      "type": "way",
      "id": 197804011,
      "center": {
        "lat": 10.8028738,
        "lon": 106.6451409
      },
      "tags": {
        "highway": "residential",
        "name": "Hẻm 354 Cộng Hòa"
      }
    },
    {
      "type": "way",
      "id": 197804012,
      "center": {
        "lat": 10.8028645,
        "lon": 106.6454334
      },
      "tags": {
        "highway": "residential",
        "name": "Hẻm 346 Cộng Hòa"
      }
    },
    {
      "type": "way",
      "id": 197804013,
      "center": {
        "lat": 10.8082389,
        "lon": 106.6473474
      },
      "tags": {
        "highway": "residential",
        "name": "Hẻm 247 Hoàng Hoa Thám"
      }
    },
    {
      "type": "way",
      "id": 197804014,
      "center": {
        "lat": 10.7997255,
        "lon": 106.6445326
      },
      "tags": {
        "highway": "residential",
        "name": "Bình Giã"
      }
    },
    {
      "type": "way",
      "id": 197804015,
      "center": {
        "lat": 10.8023963,
        "lon": 106.6513326
      },
      "tags": {
        "highway": "service",
        "service": "alley"
      }
    },
    {
      "type": "way",
      "id": 197804016,
      "center": {
        "lat": 10.8035879,
        "lon": 106.6452139
      },
      "tags": {
        "highway": "residential",
        "name": "Hẻm 23 Đường C1"
      }
    },
    {
      "type": "way",
      "id": 197804017,
      "center": {
        "lat": 10.8082407,
        "lon": 106.645866
      },
      "tags": {
        "highway": "service",
        "service": "alley"
      }
    },
    {
      "type": "way",
      "id": 197804018,
      "center": {
        "lat": 10.8018072,
        "lon": 106.6450504
      },
      "tags": {
        "highway": "residential",
        "name": "Bình Giã",
        "oneway": "yes"
      }
    },
    {
      "type": "way",
      "id": 197804019,
      "center": {
        "lat": 10.79827,
        "lon": 106.6449138
      },
      "tags": {
        "highway": "service"
      }
    },
    {
      "type": "way",
      "id": 197804020,
      "center": {
        "lat": 10.8049322,
        "lon": 106.6435428
      },
      "tags": {
        "highway": "residential",
        "name": "Hẻm 65 Trần Văn Dư"
      }
    },
    {
      "type": "way",
      "id": 197804021,
      "center": {
        "lat": 10.8007222,
        "lon": 106.6609537
      },
      "tags": {
        "highway": "primary",
        "name": "Cộng Hòa",
        "name:en": "Cong Hoa St",
        "oneway": "yes",
        "surface": "asphalt"
      }
    },
    {
      "type": "way",
      "id": 197804022,
      "center": {
        "lat": 10.8036363,
        "lon": 106.6431844
      },
      "tags": {
        "highway": "residential",
        "name": "Hẻm 14/13 Thân Nhân Trung"
      }
    },
    {
      "type": "way",
      "id": 197804024,
      "center": {
        "lat": 10.8015016,
        "lon": 106.659064
      },
      "tags": {
        "highway": "residential",
        "name": "Hẻm 78 Cộng Hòa"
      }
    },
    {
      "type": "way",
      "id": 197804025,
      "center": {
        "lat": 10.8084896,
        "lon": 106.6459015
      },
      "tags": {
        "highway": "residential",
        "name": "Hẻm 42 Văn Chung"
      }
    },
    {
      "type": "way",
      "id": 197804026,
      "center": {
        "lat": 10.8074882,
        "lon": 106.6348358
      },
      "tags": {
        "highway": "primary",
        "lanes": "3",
        "name": "Trường Chinh",
        "oneway": "yes",
        "surface": "asphalt"
      }
    },
    {
      "type": "way",
      "id": 197804027,
      "center": {
        "lat": 10.7985148,
        "lon": 106.6460494
      },
      "tags": {
        "highway": "service",
        "name": "Hẻm 240"
      }
    },
    {
      "type": "way",
      "id": 197804028,
      "center": {
        "lat": 10.8011791,
        "lon": 106.6452841
      },
      "tags": {
        "highway": "service",
        "name": "Hẻm 45 Đồng Xoài"
      }
    },
    {
      "type": "way",
      "id": 197804029,
      "center": {
        "lat": 10.7997016,
        "lon": 106.6465458
      },
      "tags": {
        "highway": "service",
        "name": "Hẻm 17 Đồng Xoài"
      }
    },
    {
      "type": "way",
      "id": 197804030,
      "center": {
        "lat": 10.8017824,
        "lon": 106.6453389
      },
      "tags": {
        "highway": "residential",
        "name": "Bình Giã",
        "oneway": "yes"
      }
    },
    {
      "type": "way",
      "id": 197804031,
      "center": {
        "lat": 10.8047225,
        "lon": 106.643773
      },
      "tags": {
        "highway": "service",
        "service": "alley"
      }
    },
    {
      "type": "way",
      "id": 197804032,
      "center": {
        "lat": 10.7993116,
        "lon": 106.6452354
      },
      "tags": {
        "highway": "service",
        "name": "Hẻm 2/5 Bình Giã"
      }
    },
    {
      "type": "way",
      "id": 197804034,
      "center": {
        "lat": 10.8024924,
        "lon": 106.6452953
      },
      "tags": {
        "highway": "residential",
        "name": "Hẻm 3 Đường C1"
      }
    },
    {
      "type": "way",
      "id": 197804035,
      "center": {
        "lat": 10.8004761,
        "lon": 106.6451949
      },
      "tags": {
        "highway": "service"
      }
    },
    {
      "type": "way",
      "id": 197804036,
      "center": {
        "lat": 10.8065652,
        "lon": 106.6356525
      },
      "tags": {
        "highway": "primary",
        "lanes": "3",
        "name": "Cộng Hòa",
        "name:en": "Cong Hoa St",
        "oneway": "yes",
        "surface": "asphalt"
      }
    },
    {
      "type": "way",
      "id": 197804037,
      "center": {
        "lat": 10.8054901,
        "lon": 106.6438648
      },
      "tags": {
        "highway": "residential",
        "name": "Hẻm 23 Mai Lão Bạng"
      }
    },
    {
      "type": "way",
      "id": 197804038,
      "center": {
        "lat": 10.8002265,
        "lon": 106.6449223
      },
      "tags": {
        "highway": "service",
        "name": "Hẻm 50 Bình Giã"
      }
    },
    {
      "type": "way",
      "id": 197804040,
      "center": {
        "lat": 10.8074597,
        "lon": 106.648936
      },
      "tags": {
        "highway": "residential",
        "name": "Hẻm 158 Hoàng Hoa Thám"
      }
    },
    {
      "type": "way",
      "id": 197804041,
      "center": {
        "lat": 10.7980359,
        "lon": 106.6462316
      },
      "tags": {
        "highway": "service",
        "name": "Hẻm 15 Hoàng Hoa Thám"
      }
    },
    {
      "type": "way",
      "id": 197804042,
      "center": {
        "lat": 10.8050203,
        "lon": 106.639457
      },
      "tags": {
        "highway": "residential",
        "name": "Nhất Chi Mai",
        "name:en": "Nhat Chi Mai"
      }
    },
    {
      "type": "way",
      "id": 197804043,
      "center": {
        "lat": 10.8008551,
        "lon": 106.6449023
      },
      "tags": {
        "highway": "service",
        "name": "Hẻm 76 Bình Giã"
      }
    },
    {
      "type": "way",
      "id": 197804044,
      "center": {
        "lat": 10.8011258,
        "lon": 106.6459761
      },
      "tags": {
        "highway": "service",
        "name": "Hẻm 42 Đồng Xoài"
      }
    },
    {
      "type": "way",
      "id": 197804045,
      "center": {
        "lat": 10.8024217,
        "lon": 106.6579311
      },
      "tags": {
        "highway": "residential",
        "name": "Hẻm 51/10 Giải Phóng"
      }
    },
    {
      "type": "way",
      "id": 197804046,
      "center": {
        "lat": 10.8022038,
        "lon": 106.658342
      },
      "tags": {
        "highway": "residential",
        "name": "Hẻm 108 Cộng Hòa"
      }
    },
    {
      "type": "way",
      "id": 197804047,
      "center": {
        "lat": 10.7990334,
        "lon": 106.6447423
      },
      "tags": {
        "highway": "service",
        "name": "Hẻm 2 Bình Giã"
      }
    },
    {
      "type": "way",
      "id": 197804048,
      "center": {
        "lat": 10.7975683,
        "lon": 106.6457236
      },
      "tags": {
        "highway": "service",
        "name": "Hẻm 230 Trường Chinh"
      }
    },
    {
      "type": "way",
      "id": 197804049,
      "center": {
        "lat": 10.8014991,
        "lon": 106.6592565
      },
      "tags": {
        "highway": "residential",
        "name": "Hẻm 78H Cộng Hòa"
      }
    },
    {
      "type": "way",
      "id": 197804050,
      "center": {
        "lat": 10.8083631,
        "lon": 106.6471391
      },
      "tags": {
        "highway": "residential",
        "name": "Hẻm 4 Văn Chung"
      }
    },
    {
      "type": "way",
      "id": 197804051,
      "center": {
        "lat": 10.8088606,
        "lon": 106.6454973
      },
      "tags": {
        "highway": "service",
        "service": "alley"
      }
    },
    {
      "type": "way",
      "id": 197804052,
      "center": {
        "lat": 10.8073564,
        "lon": 106.634581
      },
      "tags": {
        "highway": "primary",
        "lanes": "3",
        "name": "Trường Chinh",
        "oneway": "yes",
        "surface": "asphalt"
      }
    },
    {
      "type": "way",
      "id": 197804053,
      "center": {
        "lat": 10.805817,
        "lon": 106.6441867
      },
      "tags": {
        "highway": "residential",
        "name": "Hẻm 13 Mai Lão Bạng"
      }
    },
    {
      "type": "way",
      "id": 197804054,
      "center": {
        "lat": 10.8085864,
        "lon": 106.6455672
      },
      "tags": {
        "highway": "residential",
        "name": "Hẻm 56 Văn Chung"
      }
    },
    {
      "type": "way",
      "id": 197804055,
      "center": {
        "lat": 10.8028995,
        "lon": 106.6574135
      },
      "tags": {
        "highway": "residential",
        "name": "Hẻm 65 Giải Phóng"
      }
    },
    {
      "type": "way",
      "id": 197804056,
      "center": {
        "lat": 10.8009174,
        "lon": 106.661301
      },
      "tags": {
        "highway": "service",
        "service": "alley",
        "smoothness": "excellent",
        "surface": "asphalt"
      }
    },
    {
      "type": "way",
      "id": 197804057,
      "center": {
        "lat": 10.799707,
        "lon": 106.6456896
      },
      "tags": {
        "highway": "service"
      }
    },
    {
      "type": "way",
      "id": 197804058,
      "center": {
        "lat": 10.8021718,
        "lon": 106.6598699
      },
      "tags": {
        "highway": "service",
        "name": "Hẻm 9 Giải Phóng"
      }
    },
    {
      "type": "way",
      "id": 197804059,
      "center": {
        "lat": 10.803454,
        "lon": 106.6441341
      },
      "tags": {
        "highway": "service",
        "service": "alley"
      }
    },
    {
      "type": "way",
      "id": 197804061,
      "center": {
        "lat": 10.8015692,
        "lon": 106.63928
      },
      "tags": {
        "highway": "residential",
        "lanes": "1",
        "name": "Tân Hải",
        "name:en": "Tan Hai Street",
        "name:zh": "新海路",
        "oneway": "yes",
        "oneway:bicycle": "no",
        "oneway:motorcycle": "no",
        "surface": "asphalt"
      }
    },
    {
      "type": "way",
      "id": 197804062,
      "center": {
        "lat": 10.8028999,
        "lon": 106.6585086
      },
      "tags": {
        "highway": "residential",
        "name": "Hẻm 36 Giải Phóng"
      }
    },
    {
      "type": "way",
      "id": 197804063,
      "center": {
        "lat": 10.8032634,
        "lon": 106.6437699
      },
      "tags": {
        "highway": "residential",
        "name": "Hẻm 406 Cộng Hòa"
      }
    },
    {
      "type": "way",
      "id": 197804064,
      "center": {
        "lat": 10.8041975,
        "lon": 106.6409189
      },
      "tags": {
        "highway": "residential",
        "name": "Lê Văn Huân"
      }
    },
    {
      "type": "way",
      "id": 197804065,
      "center": {
        "lat": 10.8071618,
        "lon": 106.649409
      },
      "tags": {
        "highway": "residential"
      }
    },
    {
      "type": "way",
      "id": 197804066,
      "center": {
        "lat": 10.8019378,
        "lon": 106.6603294
      },
      "tags": {
        "highway": "service",
        "name": "Hẻm 25 Thăng Long",
        "surface": "asphalt"
      }
    },
    {
      "type": "way",
      "id": 197804067,
      "center": {
        "lat": 10.8027398,
        "lon": 106.6445561
      },
      "tags": {
        "highway": "residential",
        "name": "Hẻm 6 Trần Văn Dư"
      }
    },
    {
      "type": "way",
      "id": 197804068,
      "center": {
        "lat": 10.8050936,
        "lon": 106.6370494
      },
      "tags": {
        "highway": "primary",
        "lanes": "2",
        "lit": "yes",
        "name": "Cộng Hòa",
        "name:en": "Cong Hoa St",
        "oneway": "yes",
        "surface": "asphalt"
      }
    },
    {
      "type": "way",
      "id": 197804069,
      "center": {
        "lat": 10.8026633,
        "lon": 106.6443364
      },
      "tags": {
        "highway": "residential",
        "name": "Trần Văn Dư"
      }
    },
    {
      "type": "way",
      "id": 197804070,
      "center": {
        "lat": 10.8020121,
        "lon": 106.6517164
      },
      "tags": {
        "highway": "residential",
        "name": "Hẻm 156 Cộng Hòa"
      }
    },
    {
      "type": "way",
      "id": 197804071,
      "center": {
        "lat": 10.805269,
        "lon": 106.6460633
      },
      "tags": {
        "highway": "residential",
        "name": "Hẻm 14 Cù Chính Lan"
      }
    },
    {
      "type": "way",
      "id": 197804072,
      "center": {
        "lat": 10.8028434,
        "lon": 106.6464326
      },
      "tags": {
        "highway": "residential",
        "name": "Hẻm 127 Hoàng Hoa Thám"
      }
    },
    {
      "type": "way",
      "id": 197804073,
      "center": {
        "lat": 10.8072709,
        "lon": 106.6446381
      },