{
  "version": 0.6,
  "generator": "Overpass API 0.7.62.11 87bfad18",
  "osm3s": {
    "timestamp_osm_base": "2026-07-22T11:34:51Z",
    "copyright": "The data included in this document is from www.openstreetmap.org. The data is made available under ODbL."
  },
  "elements": [
    {
      "type": "way",
      "id": 32575823,
      "center": {
        "lat": 10.7691989,
        "lon": 106.6525189
      },
      "tags": {
        "highway": "secondary",
        "lanes": "2",
        "name": "Nguyễn Thị Nhỏ",
        "oneway": "yes",
        "surface": "asphalt"
      }
    },
    {
      "type": "way",
      "id": 32575876,
      "center": {
        "lat": 10.7761661,
        "lon": 106.6509244
      },
      "tags": {
        "highway": "service",
        "name": "Lạc Long Quân",
        "name:full": "Hẻm 730 Lạc Long Quân",
        "ref": "730",
        "service": "alley",
        "source": "Bing"
      }
    },
    {
      "type": "way",
      "id": 32575997,
      "center": {
        "lat": 10.7565659,
        "lon": 106.647784
      },
      "tags": {
        "highway": "tertiary",
        "name": "Nguyễn Chí Thanh",
        "surface": "asphalt"
      }
    },
    {
      "type": "way",
      "id": 32576005,
      "center": {
        "lat": 10.7536546,
        "lon": 106.6578784
      },
      "tags": {
        "highway": "residential",
        "lanes": "2",
        "name": "Đường Lão Tử",
        "surface": "asphalt"
      }
    },
    {
      "type": "way",
      "id": 32576069,
      "center": {
        "lat": 10.7801176,
        "lon": 106.6744337
      },
      "tags": {
        "highway": "residential",
        "motorcar": "destination",
        "name": "Hẻm 158 Hòa Hưng"
      }
    },
    {
      "type": "way",
      "id": 32576112,
      "center": {
        "lat": 10.794718,
        "lon": 106.6727725
      },
      "tags": {
        "highway": "tertiary",
        "name": "Đường Trương Quốc Dung"
      }
    },
    {
      "type": "way",
      "id": 32576166,
      "center": {
        "lat": 10.7852559,
        "lon": 106.6583595
      },
      "tags": {
        "highway": "residential",
        "name": "Đại Nghĩa"
      }
    },
    {
      "type": "way",
      "id": 32576188,
      "center": {
        "lat": 10.7726587,
        "lon": 106.647342
      },
      "tags": {
        "hgv": "no",
        "highway": "residential",
        "name": "Hẻm 592 Lạc Long Quân",
        "surface": "concrete"
      }
    },
    {
      "type": "way",
      "id": 32576303,
      "center": {
        "lat": 10.7932856,
        "lon": 106.6655152
      },
      "tags": {
        "highway": "residential",
        "name": "Hẻm 229 Bùi Thị Xuân"
      }
    },
    {
      "type": "way",
      "id": 32576377,
      "center": {
        "lat": 10.7888048,
        "lon": 106.6821767
      },
      "tags": {
        "highway": "tertiary",
        "lanes": "2",
        "maxspeed": "50",
        "name": "Trường Sa",
        "oneway": "no",
        "surface": "asphalt"
      }
    },
    {
      "type": "way",
      "id": 32576509,
      "center": {
        "lat": 10.7837507,
        "lon": 106.6681789
      },
      "tags": {
        "highway": "residential",
        "name": "Hẻm 601 Cách Mạng Tháng 8"
      }
    },
    {
      "type": "way",
      "id": 32576546,
      "center": {
        "lat": 10.7731914,
        "lon": 106.6503714
      },
      "tags": {
        "highway": "residential",
        "name": "Hẻm 220 Âu Cơ",
        "surface": "asphalt"
      }
    },
    {
      "type": "way",
      "id": 32576550,
      "center": {
        "lat": 10.7737645,
        "lon": 106.6542336
      },
      "tags": {
        "highway": "footway"
      }
    },
    {
      "type": "way",
      "id": 32576680,
      "center": {
        "lat": 10.7630578,
        "lon": 106.6681566
      },
      "tags": {
        "highway": "primary_link",
        "surface": "asphalt"
      }
    },
    {
      "type": "way",
      "id": 32576684,
      "center": {
        "lat": 10.7622652,
        "lon": 106.6714817
      },
      "tags": {
        "highway": "residential",
        "surface": "asphalt"
      }
    },
    {
      "type": "way",
      "id": 32576686,
      "center": {
        "lat": 10.7629465,
        "lon": 106.6603551
      },
      "tags": {
        "highway": "residential",
        "lanes": "2",
        "name": "Nhật Tảo",
        "surface": "asphalt"
      }
    },
    {
      "type": "way",
      "id": 32576911,
      "center": {
        "lat": 10.7560563,
        "lon": 106.6560561
      },
      "tags": {
        "highway": "tertiary",
        "lanes": "2",
        "name": "Đường Tân Thành",
        "name:zh": "新城街",
        "surface": "asphalt"
      }
    },
    {
      "type": "way",
      "id": 32576976,
      "center": {
        "lat": 10.7767187,
        "lon": 106.6526717
      },
      "tags": {
        "highway": "residential",
        "name": "Hẻm 116 Thiên Phước"
      }
    },
    {
      "type": "way",
      "id": 32577028,
      "center": {
        "lat": 10.7725679,
        "lon": 106.661816
      },
      "tags": {
        "highway": "residential",
        "name": "Hẻm 495/8 Đường Tô Hiến Thành"
      }
    },
    {
      "type": "way",
      "id": 32577244,
      "center": {
        "lat": 10.7643125,
        "lon": 106.6534041
      },
      "tags": {
        "hgv": "no",
        "highway": "tertiary",
        "lanes": "2",
        "maxweight:conditional": "2.5 @ (06:00-22:00)",
        "name": "Đường Tôn Thất Hiệp",
        "surface": "asphalt"
      }
    },
    {
      "type": "way",
      "id": 32577445,
      "center": {
        "lat": 10.7789583,
        "lon": 106.6752317
      },
      "tags": {
        "highway": "residential",
        "name": "Hẻm 83 Hòa Hưng"
      }
    },
    {
      "type": "way",
      "id": 32577448,
      "center": {
        "lat": 10.7789067,
        "lon": 106.6552663
      },
      "tags": {
        "highway": "residential",
        "lane_markings": "no",
        "name": "Hẻm 7 Tân Trang",
        "surface": "asphalt"
      }
    },
    {
      "type": "way",
      "id": 32577450,
      "center": {
        "lat": 10.779188,
        "lon": 106.6699258
      },
      "tags": {
        "highway": "residential",
        "name": "Hẻm 163/25 Tô Hiến Thành"
      }
    },
    {
      "type": "way",
      "id": 32577455,
      "center": {
        "lat": 10.7791554,
        "lon": 106.6709932
      },
      "tags": {
        "highway": "service",
        "motorcar": "destination",
        "name": "Hẻm 246 Hòa Hưng",
        "service": "alley"
      }
    },
    {
      "type": "way",
      "id": 32577495,
      "center": {
        "lat": 10.7713302,
        "lon": 106.6573462
      },
      "tags": {
        "highway": "residential",
        "name": "Hẻm 239 Lý Thường Kiệt"
      }
    },
    {
      "type": "way",
      "id": 32577525,
      "center": {
        "lat": 10.7711214,
        "lon": 106.6550171
      },
      "tags": {
        "highway": "residential",
        "name": "Hẻm số 1 Cư xá Lữ Gia"
      }
    },
    {
      "type": "way",
      "id": 32577613,
      "center": {
        "lat": 10.7702012,
        "lon": 106.6745228
      },
      "tags": {
        "bicycle": "yes",
        "highway": "service",
        "mofa": "yes",
        "moped": "yes",
        "motor_vehicle": "no",
        "motorcycle": "yes",
        "name": "Hẻm 702 Điện Biên Phủ",
        "service": "alley",
        "surface": "concrete"
      }
    },
    {
      "type": "way",
      "id": 32577675,
      "center": {
        "lat": 10.7902919,
        "lon": 106.6697523
      },
      "tags": {
        "highway": "residential",
        "name": "Hẻm 489A/23 Huỳnh Văn Bánh"
      }
    },
    {
      "type": "way",
      "id": 32577683,
      "center": {
        "lat": 10.7586286,
        "lon": 106.6691149
      },
      "tags": {
        "alt_name:vi": "Đại lộ Nguyễn Tri Phương",
        "destination": "phường Chánh Hưng",
        "highway": "primary",
        "lanes": "2",
        "name": "Nguyễn Tri Phương",
        "old_name": "Boulevard Lacaze",
        "oneway": "yes",
        "surface": "asphalt"
      }
    },
    {
      "type": "way",
      "id": 32577684,
      "center": {
        "lat": 10.7656957,
        "lon": 106.6674997
      },
      "tags": {
        "alt_name:vi": "Đại lộ Nguyễn Tri Phương",
        "destination": "Cầu Nguyễn Tri Phương",
        "highway": "primary",
        "lanes": "2",
        "name": "Nguyễn Tri Phương",
        "name:en": "Nguyen Tri Phuong Boulevard",
        "old_name": "Boulevard Lacaze",
        "oneway": "yes",
        "surface": "asphalt"
      }
    },
    {
      "type": "way",
      "id": 32577686,
      "center": {
        "lat": 10.7794568,
        "lon": 106.660249
      },
      "tags": {
        "highway": "secondary",
        "lanes": "2",
        "name": "Thành Thái",
        "oneway": "yes",
        "surface": "asphalt"
      }
    },
    {
      "type": "way",
      "id": 32577705,
      "center": {
        "lat": 10.775524,
        "lon": 106.640893
      },
      "tags": {
        "highway": "tertiary",
        "lanes": "2",
        "name": "Trịnh Đình Trọng",
        "surface": "asphalt"
      }
    },
    {
      "type": "way",
      "id": 32577756,
      "center": {
        "lat": 10.7717659,
        "lon": 106.6492345
      },
      "tags": {
        "highway": "residential",
        "motorcar": "destination",
        "name": "Hẻm 161 Âu Cơ",
        "surface": "concrete"
      }
    },
    {
      "type": "way",
      "id": 32577782,
      "center": {
        "lat": 10.7736116,
        "lon": 106.6547851
      },
      "tags": {
        "highway": "residential",
        "name": "Hẻm 6 đường số 3"
      }
    },
    {
      "type": "way",
      "id": 32577930,
      "center": {
        "lat": 10.7709312,
        "lon": 106.6403754
      },
      "tags": {
        "highway": "residential",
        "name": "Hẻm 341S Lạc Long Quân",
        "surface": "asphalt"
      }
    },
    {
      "type": "way",
      "id": 32578046,
      "center": {
        "lat": 10.7586375,
        "lon": 106.6469733
      },
      "tags": {
        "highway": "residential",
        "lanes": "2",
        "name": "Đường Xóm Đất",
        "surface": "asphalt"
      }
    },
    {
      "type": "way",
      "id": 32578100,
      "center": {
        "lat": 10.7856504,
        "lon": 106.6459002
      },
      "tags": {
        "highway": "tertiary",
        "name": "Ni Sư Huỳnh Liên",
        "name:en": "Ni Su Huynh Lien St.",
        "old_name": "ờn Lan"
      }
    },
    {
      "type": "way",
      "id": 32578222,
      "center": {
        "lat": 10.7619081,
        "lon": 106.655476
      },
      "tags": {
        "highway": "residential",
        "motorcar": "destination",
        "name": "Hẻm 43 Lãnh Binh Thăng",
        "surface": "concrete"
      }
    },
    {
      "type": "way",
      "id": 32578227,
      "center": {
        "lat": 10.7614624,
        "lon": 106.6622687
      },
      "tags": {
        "highway": "residential",
        "lanes": "2",
        "name": "Tân Phước",
        "surface": "asphalt"
      }
    },
    {
      "type": "way",
      "id": 32578229,
      "center": {
        "lat": 10.7619512,
        "lon": 106.671562
      },
      "tags": {
        "highway": "residential"
      }
    },
    {
      "type": "way",
      "id": 32578332,
      "center": {
        "lat": 10.7745504,
        "lon": 106.6527315
      },
      "tags": {
        "highway": "residential",
        "lane_markings": "no",
        "name": "Trần Văn Hoàng",
        "surface": "asphalt"
      }
    },
    {
      "type": "way",
      "id": 32578391,
      "center": {
        "lat": 10.762841,
        "lon": 106.646381
      },
      "tags": {
        "highway": "residential",
        "lanes": "2",
        "name": "Hẻm 307 Thái Phiên",
        "surface": "asphalt"
      }
    },
    {
      "type": "way",
      "id": 32578394,
      "center": {
        "lat": 10.7575203,
        "lon": 106.6462571
      },
      "tags": {
        "highway": "residential",
        "maxweight": "2.5",
        "name": "Hẻm 197 Hàn Hải Nguyên",
        "surface": "concrete"
      }
    },
    {
      "type": "way",
      "id": 32578556,
      "center": {
        "lat": 10.759448,
        "lon": 106.6472931
      },
      "tags": {
        "highway": "residential",
        "name": "Hẻm 174 Thái Phiên"
      }
    },
    {
      "type": "way",
      "id": 32578559,
      "center": {
        "lat": 10.7599094,
        "lon": 106.6485325
      },
      "tags": {
        "highway": "residential",
        "name": "Hẻm 48 Dương Đình Nghệ",
        "surface": "asphalt"
      }
    },
    {
      "type": "way",
      "id": 32578640,
      "center": {
        "lat": 10.777457,
        "lon": 106.6505368
      },
      "tags": {
        "highway": "residential",
        "name": "Hẻm 752 Lạc Long Quân"
      }
    },
    {
      "type": "way",
      "id": 32578728,
      "center": {
        "lat": 10.7643623,
        "lon": 106.6652614
      },
      "tags": {
        "highway": "residential",
        "motorcar": "destination",
        "name": "Hẻm 278 Nhật Tảo",
        "surface": "concrete"
      }
    },
    {
      "type": "way",
      "id": 32578733,
      "center": {
        "lat": 10.7878797,
        "lon": 106.646576
      },
      "tags": {
        "highway": "tertiary",
        "name": "Hồng Lạc",
        "name:en": "Hong Lac",
        "oneway": "yes",
        "oneway:bicycle": "no",
        "oneway:mofa": "no",
        "oneway:moped": "no",
        "oneway:motorcycle": "no"
      }
    },
    {
      "type": "way",
      "id": 32578734,
      "center": {
        "lat": 10.7856129,
        "lon": 106.6502923
      },
      "tags": {
        "highway": "residential",
        "name": "Hẻm 911 Lạc Long Quân, P.11, Q.Tân Bình",
        "name:en": "Alley 911 Lac Long Quan",
        "oneway": "no"
      }
    },
    {
      "type": "way",
      "id": 32578747,
      "center": {
        "lat": 10.7836536,
        "lon": 106.6544158
      },
      "tags": {
        "highway": "residential",
        "surface": "asphalt"
      }
    },
    {
      "type": "way",
      "id": 32578749,
      "center": {
        "lat": 10.7635996,
        "lon": 106.6496808
      },
      "tags": {
        "highway": "secondary",
        "lanes": "2",
        "name": "Lãnh Binh Thăng",
        "surface": "asphalt"
      }
    },
    {
      "type": "way",
      "id": 32578841,
      "center": {
        "lat": 10.7782584,
        "lon": 106.6523224
      },
      "tags": {
        "highway": "residential",
        "motorcar": "destination",
        "name": "Hẻm 116/109 Thiên Phước"
      }
    },
    {
      "type": "way",
      "id": 32578842,
      "center": {
        "lat": 10.7704223,
        "lon": 106.6648481
      },
      "tags": {
        "highway": "residential",
        "name": "Hẻm 7/6 Đường Thành Thái"
      }
    },
    {
      "type": "way",
      "id": 32578880,
      "center": {
        "lat": 10.790758,
        "lon": 106.6507113
      },
      "tags": {
        "highway": "residential",
        "name": "Năm Châu"
      }
    },
    {
      "type": "way",
      "id": 32578901,
      "center": {
        "lat": 10.785465,
        "lon": 106.6555316
      },
      "tags": {
        "highway": "residential",
        "name": "Long Hưng"
      }
    },
    {
      "type": "way",
      "id": 32578991,
      "center": {
        "lat": 10.7769291,
        "lon": 106.6545268
      },
      "tags": {
        "highway": "tertiary",
        "lane_markings": "yes",
        "lanes": "2",
        "maxweight": "3.5",
        "name": "Thiên Phước",
        "surface": "asphalt"
      }
    },
    {
      "type": "way",
      "id": 32579047,
      "center": {
        "lat": 10.7602876,
        "lon": 106.645286
      },
      "tags": {
        "highway": "residential",
        "name": "Hẻm 418 Minh Phụng",
        "surface": "asphalt"
      }
    },
    {
      "type": "way",
      "id": 32579053,
      "center": {
        "lat": 10.7599055,
        "lon": 106.670137
      },
      "tags": {
        "fixme": "name",
        "highway": "residential",
        "motor_vehicle": "no",
        "motorcycle": "yes",
        "surface": "asphalt"
      }
    },
    {
      "type": "way",
      "id": 32579147,
      "center": {
        "lat": 10.7947794,
        "lon": 106.656263
      },
      "tags": {
        "highway": "residential",
        "name": "Hẻm 8 Nguyễn Đình Khơi"
      }
    },
    {
      "type": "way",
      "id": 32579171,
      "center": {
        "lat": 10.7818882,
        "lon": 106.6536953
      },
      "tags": {
        "highway": "residential",
        "lane_markings": "yes",
        "lanes": "2",
        "name": "Thành Mỹ",
        "surface": "asphalt"
      }
    },
    {
      "type": "way",
      "id": 32579174,
      "center": {
        "lat": 10.7825548,
        "lon": 106.6640016
      },
      "tags": {
        "highway": "residential",
        "name": "Nguyễn Giàn Thanh",
        "surface": "asphalt"
      }
    },
    {
      "type": "way",
      "id": 32579392,
      "center": {
        "lat": 10.7547966,
        "lon": 106.6566489
      },
      "tags": {
        "highway": "residential",
        "lanes": "2",
        "name": "Đường Tân Hưng",
        "name:zh": "新兴街",
        "surface": "asphalt"
      }
    },
    {
      "type": "way",
      "id": 32579470,
      "center": {
        "lat": 10.7656013,
        "lon": 106.6611655
      },
      "tags": {
        "highway": "residential",
        "lane_markings": "no",
        "motorcar:backward:conditional": "no",
        "name": "Hẻm 666 Đường 3 Tháng 2",
        "surface": "concrete"
      }
    },
    {
      "type": "way",
      "id": 32579471,
      "center": {
        "lat": 10.7658522,
        "lon": 106.6704167
      },
      "tags": {
        "highway": "residential",
        "maxweight": "2",
        "name": "Hẻm 193 Bà Hạt",
        "surface": "asphalt"
      }
    },
    {
      "type": "way",
      "id": 32579472,
      "center": {
        "lat": 10.7660993,
        "lon": 106.6663042
      },
      "tags": {
        "highway": "service",
        "name": "Hẻm 262 Nguyễn Tiểu La"
      }
    },
    {
      "type": "way",
      "id": 32579474,
      "center": {
        "lat": 10.7685925,
        "lon": 106.6641781
      },
      "tags": {
        "highway": "residential",
        "motor_vehicle": "no",
        "motorcycle": "yes",
        "name": "Hẻm 3/38 Thành Thái"
      }
    },
    {
      "type": "way",
      "id": 32579529,
      "center": {
        "lat": 10.7611644,
        "lon": 106.6440176
      },
      "tags": {
        "highway": "service",
        "motorcar": "destination",
        "service": "alley",
        "surface": "concrete"
      }
    },
    {
      "type": "way",
      "id": 32579549,
      "center": {
        "lat": 10.7975168,
        "lon": 106.6612499
      },
      "tags": {
        "highway": "residential",
        "name": "Nguyễn Thanh Tuyền"
      }
    },
    {
      "type": "way",
      "id": 32579569,
      "center": {
        "lat": 10.7974189,
        "lon": 106.6665877
      },
      "tags": {
        "highway": "service",
        "motorcar": "destination",
        "name": "Hẻm 355 Nguyễn Trọng Tuyển",
        "service": "alley"
      }
    },
    {
      "type": "way",
      "id": 32579619,
      "center": {
        "lat": 10.7925988,
        "lon": 106.6663016
      },
      "tags": {
        "highway": "residential",
        "name": "Hẻm 281/60-62 Lê Văn Sỹ"
      }
    },
    {
      "type": "way",
      "id": 32579621,
      "center": {
        "lat": 10.791015,
        "lon": 106.6672847
      },
      "tags": {
        "highway": "service",
        "motorcar": "destination",
        "name": "Hẻm 173 Đặng Văn Ngữ",
        "service": "alley"
      }
    },
    {
      "type": "way",
      "id": 32579622,
      "center": {
        "lat": 10.7785583,
        "lon": 106.6535915
      },
      "tags": {
        "alt_name": "Đồng Tiến",
        "highway": "residential",
        "name": "Hẻm 373/1 Lý Thường Kiệt"
      }
    },
    {
      "type": "way",
      "id": 32579623,
      "center": {
        "lat": 10.7782452,
        "lon": 106.6528373
      },
      "tags": {
        "highway": "residential",
        "motorcar": "destination",
        "name": "Hẻm 116 Thiên Phước"
      }
    },
    {
      "type": "way",
      "id": 32579624,
      "center": {
        "lat": 10.7800918,
        "lon": 106.6533481
      },
      "tags": {
        "highway": "residential",
        "motorcar": "destination",
        "name": "Hẻm 55/17 Thành Mỹ"
      }
    },
    {
      "type": "way",
      "id": 32579641,
      "center": {
        "lat": 10.7648227,
        "lon": 106.6457004
      },
      "tags": {
        "highway": "secondary",
        "lanes": "2",
        "name": "Bình Thới",
        "surface": "asphalt"
      }
    },
    {
      "type": "way",
      "id": 32579658,
      "center": {
        "lat": 10.7718393,
        "lon": 106.661294
      },
      "tags": {
        "highway": "residential",
        "name": "Hẻm 7A Thành Thái"
      }
    },
    {
      "type": "way",
      "id": 32579758,
      "center": {
        "lat": 10.7531391,
        "lon": 106.6689384
      },
      "tags": {
        "highway": "primary",
        "lanes": "3",
        "name": "Đường Trần Phú",
        "name:zh": "陈福路",
        "old_name": "Avenue Général Huntziger;Đại lộ Nguyễn Hoàng",
        "oneway": "yes",
        "surface": "asphalt",
        "turn:lanes": "left|left;through|through"
      }
    },
    {
      "type": "way",
      "id": 32579934,
      "center": {
        "lat": 10.7753156,
        "lon": 106.655896
      },
      "tags": {
        "highway": "residential",
        "name": "Hẻm 6/10 đường số 3"
      }
    },
    {
      "type": "way",
      "id": 32579936,
      "center": {
        "lat": 10.7726047,
        "lon": 106.6398019
      },
      "tags": {
        "highway": "residential",
        "name": "Hẻm 173/45 Khuông Việt",
        "surface": "asphalt"
      }
    },
    {
      "type": "way",
      "id": 32579938,
      "center": {
        "lat": 10.7744183,
        "lon": 106.6498203
      },
      "tags": {
        "highway": "residential",
        "name": "Hẻm 254 Âu Cơ",
        "source": "Bing",
        "surface": "asphalt"
      }
    },
    {
      "type": "way",
      "id": 32579943,
      "center": {
        "lat": 10.7756074,
        "lon": 106.6551433
      },
      "tags": {
        "highway": "residential",
        "name": "Hẻm 299/11 Lý Thường Kiệt"
      }
    },
    {
      "type": "way",
      "id": 32580043,
      "center": {
        "lat": 10.7647646,
        "lon": 106.6771488
      },
      "tags": {
        "highway": "residential",
        "lanes": "2",
        "motorcar": "destination",
        "name": "Hồ Thị Kỷ",
        "oneway": "yes",
        "oneway:bicycle": "no",
        "oneway:mofa": "no",
        "oneway:moped": "no",
        "oneway:motorcycle": "no",
        "surface": "asphalt"
      }
    },
    {
      "type": "way",
      "id": 32580076,
      "center": {
        "lat": 10.7617228,
        "lon": 106.6617889
      },
      "tags": {
        "highway": "service",
        "surface": "paving_stones"
      }
    },
    {
      "type": "way",
      "id": 32580086,
      "center": {
        "lat": 10.7609318,
        "lon": 106.6579524
      },
      "tags": {
        "highway": "secondary",
        "lanes": "2",
        "name": "Lê Đại Hành",
        "name:zh": "黎大行街",
        "oneway": "yes",
        "sidewalk": "no",
        "surface": "asphalt"
      }
    },
    {
      "type": "way",
      "id": 32580156,
      "center": {
        "lat": 10.775578,
        "lon": 106.6670443
      },
      "tags": {
        "highway": "residential",
        "name": "Hẻm 541 Sư Vạn Hạnh",
        "old_name": "Hẻm 157"
      }
    },
    {
      "type": "way",
      "id": 32580162,
      "center": {
        "lat": 10.7930854,
        "lon": 106.6673247
      },
      "tags": {
        "highway": "residential",
        "name": "Hẻm 281/23-25 Lê Văn Sỹ"
      }
    },
    {
      "type": "way",
      "id": 32580230,
      "center": {
        "lat": 10.7960862,
        "lon": 106.6565274
      },
      "tags": {
        "highway": "residential"
      }
    },
    {
      "type": "way",
      "id": 32580242,
      "center": {
        "lat": 10.7951298,
        "lon": 106.6532073
      },
      "tags": {
        "highway": "primary",
        "lanes": "3",
        "name": "Xuân Hồng",
        "oneway": "yes",
        "surface": "asphalt"
      }
    },
    {
      "type": "way",
      "id": 32580466,
      "center": {
        "lat": 10.7598578,
        "lon": 106.6570759
      },
      "tags": {
        "highway": "secondary",
        "lanes": "2",
        "maxweight:conditional": "2.5 @ (06:00-22:00)",
        "name": "Đường Phó Cơ Điều",
        "old_name": "Rue du Docteur Gaillard",
        "oneway": "yes",
        "parking:right:restriction": "no_parking",
        "surface": "asphalt"
      }
    },
    {
      "type": "way",
      "id": 32580608,
      "center": {
        "lat": 10.770786,
        "lon": 106.6553357
      },
      "tags": {
        "highway": "secondary",
        "lanes": "2",
        "name": "Lữ Gia",
        "surface": "asphalt"
      }
    },
    {
      "type": "way",
      "id": 32580843,
      "center": {
        "lat": 10.783096,
        "lon": 106.6593202
      },
      "tags": {
        "highway": "residential",
        "motorcar": "destination",
        "name": "Hẻm 149 Đất Thánh"
      }
    },
    {
      "type": "way",
      "id": 32580926,
      "center": {
        "lat": 10.7653217,
        "lon": 106.6471538
      },
      "tags": {
        "highway": "residential",
        "lanes": "1",
        "motorcar": "destination",
        "name": "Hẻm 173 Bình Thới",
        "surface": "concrete"
      }
    },
    {
      "type": "way",
      "id": 32580927,
      "center": {
        "lat": 10.7649239,
        "lon": 106.6624727
      },
      "tags": {
        "highway": "residential",
        "motorcar": "destination",
        "name": "Hẻm 705 Đường 3 Tháng 2",
        "surface": "concrete"
      }
    },
    {
      "type": "way",
      "id": 32580929,
      "center": {
        "lat": 10.7652278,
        "lon": 106.6705694
      },
      "tags": {
        "highway": "residential",
        "name": "Hẻm 193 Bà Hạt"
      }
    },
    {
      "type": "way",
      "id": 32581052,
      "center": {
        "lat": 10.7628603,
        "lon": 106.6747007
      },
      "tags": {
        "alt_name": "Trần Nhân Tông",
        "highway": "tertiary",
        "lanes": "2",
        "maxspeed": "50",
        "name": "Trần Nhân Tôn",
        "psv:conditional": "no @ (06:00-22:00)",
        "sidewalk": "both",
        "surface": "asphalt"
      }
    },
    {
      "type": "way",
      "id": 32581077,
      "center": {
        "lat": 10.7572562,
        "lon": 106.6676394
      },
      "tags": {
        "highway": "service",
        "lanes": "2",
        "surface": "asphalt"
      }
    },
    {
      "type": "way",
      "id": 32581129,
      "center": {
        "lat": 10.7678022,
        "lon": 106.6728388
      },
      "tags": {
        "highway": "primary",
        "lanes": "2",
        "name": "Lý Thái Tổ",
        "old_name": "Boulevard Hui Bon Hoa",
        "oneway": "yes",
        "surface": "asphalt"
      }
    },
    {
      "type": "way",
      "id": 32581306,
      "center": {
        "lat": 10.7713935,
        "lon": 106.642087
      },
      "tags": {
        "highway": "residential",
        "name": "Đường Tống Văn Trân",
        "surface": "asphalt"
      }
    },
    {
      "type": "way",
      "id": 32581307,
      "center": {
        "lat": 10.7706775,
        "lon": 106.6394418
      },
      "tags": {
        "highway": "residential",
        "layer": "1",
        "name": "Hẻm 341 Khuông Việt",
        "surface": "asphalt"
      }
    },
    {
      "type": "way",
      "id": 32581382,
      "center": {
        "lat": 10.7899917,
        "lon": 106.6557277
      },
      "tags": {
        "highway": "residential",
        "name": "Hẻm 1025 Cách Mạng Tháng 8"
      }
    },
    {
      "type": "way",
      "id": 32581389,
      "center": {
        "lat": 10.7892675,
        "lon": 106.6685955
      },
      "tags": {
        "highway": "residential",
        "motorcar": "destination",
        "name": "Hẻm 491 Huỳnh Văn Bánh"
      }
    },
    {
      "type": "way",
      "id": 32581426,
      "center": {
        "lat": 10.7663341,
        "lon": 106.6652892
      },
      "tags": {
        "highway": "residential",
        "name": "Hẻm 329 Đường Nguyễn Tiểu La"
      }
    },
    {
      "type": "way",
      "id": 32581435,
      "center": {
        "lat": 10.7665066,
        "lon": 106.6699531
      },
      "tags": {
        "highway": "residential",
        "moped": "yes",
        "motor_vehicle": "no",
        "motorcycle": "yes",
        "name": "Hẻm 232 Bà Hạt",
        "surface": "concrete"
      }
    },
    {
      "type": "way",
      "id": 32581442,
      "center": {
        "lat": 10.7769816,
        "lon": 106.6529209
      },
      "tags": {
        "highway": "residential",
        "motorcar": "destination",
        "name": "Hẻm 2/142 Thiên Phước"
      }
    },
    {
      "type": "way",
      "id": 32581604,
      "center": {
        "lat": 10.7550418,
        "lon": 106.6651619
      },
      "tags": {
        "highway": "residential",
        "name": "Đường Mạc Thiên Tích",
        "psv": "no",
        "surface": "concrete"
      }
    },
    {
      "type": "way",
      "id": 32581606,
      "center": {
        "lat": 10.7547855,
        "lon": 106.6653767
      },
      "tags": {
        "highway": "residential",
        "name": "Đường Đặng Thái Thân",
        "note": "conditional restrictions for hgv and psv needed to be added",
        "surface": "asphalt"
      }
    },
    {
      "type": "way",
      "id": 32581835,
      "center": {
        "lat": 10.7723354,
        "lon": 106.6573195
      },
      "tags": {
        "highway": "residential",
        "name": "Đường Số 2"
      }
    },
    {
      "type": "way",
      "id": 32581881,
      "center": {
        "lat": 10.7896365,
        "lon": 106.6520139
      },
      "tags": {
        "highway": "tertiary",
        "name": "Bảy Hiền"
      }
    },
    {
      "type": "way",
      "id": 32581891,
      "center": {
        "lat": 10.7888283,
        "lon": 106.6632011
      },
      "tags": {
        "highway": "residential",
        "name": "Hẻm 736 Đường Cách Mạng Tháng 8"
      }
    },
    {
      "type": "way",
      "id": 32581922,
      "center": {
        "lat": 10.7638679,
        "lon": 106.6763742
      },
      "tags": {
        "highway": "service",
        "moped": "yes",
        "motor_vehicle": "no",
        "motorcycle": "yes",
        "name": "Hẻm 368 Lê Hồng Phong",
        "surface": "concrete"
      }
    },
    {
      "type": "way",
      "id": 32581927,
      "center": {
        "lat": 10.7633315,
        "lon": 106.6720418
      },
      "tags": {
        "highway": "residential",
        "name": "Hẻm 167 Sư Vạn Hạnh",
        "surface": "asphalt"
      }
    },
    {
      "type": "way",
      "id": 32581930,
      "center": {
        "lat": 10.7636996,
        "lon": 106.6763279
      },
      "tags": {
        "highway": "service",
        "moped": "yes",
        "motor_vehicle": "no",
        "motorcycle": "yes",
        "name": "Hẻm 368/2 Lê Hồng Phong",
        "surface": "asphalt"
      }
    },
    {
      "type": "way",
      "id": 32582109,
      "center": {
        "lat": 10.7792824,
        "lon": 106.6745083
      },
      "tags": {
        "highway": "tertiary",
        "motorcycle": "yes",
        "name": "Hoà Hưng",
        "name:en": "Hoa Hung St.",
        "name:zh": "和兴路",
        "surface": "asphalt"
      }
    },
    {
      "type": "way",
      "id": 32582168,
      "center": {
        "lat": 10.7737255,
        "lon": 106.6516916
      },
      "tags": {
        "highway": "service",
        "name": "Hẻm 86 Âu Cơ",
        "name:full": "Hẻm 86 Âu Cơ",
        "ref": "86",
        "service": "alley",
        "surface": "asphalt"
      }
    },
    {
      "type": "way",
      "id": 32582180,
      "center": {
        "lat": 10.7659957,
        "lon": 106.6640151
      },
      "tags": {
        "highway": "tertiary",
        "lanes": "2",
        "name": "Nguyễn Ngọc Lộc",
        "surface": "asphalt"
      }
    },
    {
      "type": "way",
      "id": 32582360,
      "center": {
        "lat": 10.7861976,
        "lon": 106.6459556
      },
      "tags": {
        "highway": "residential",
        "name": "Đường Số 4"
      }
    },
    {
      "type": "way",
      "id": 32582442,
      "center": {
        "lat": 10.7862574,
        "lon": 106.6810926
      },
      "tags": {
        "highway": "tertiary",
        "name": "Trường Sa",
        "oneway": "no",
        "surface": "asphalt"
      }
    },
    {
      "type": "way",
      "id": 32582560,
      "center": {
        "lat": 10.7632733,
        "lon": 106.6451195
      },
      "tags": {
        "bicycle": "yes",
        "highway": "service",
        "lanes": "1",
        "mofa": "yes",
        "moped": "yes",
        "motorcar": "no",
        "name": "Hẻm 195 Bình Thới",
        "service": "alley",
        "surface": "concrete"
      }
    },
    {
      "type": "way",
      "id": 32582561,
      "center": {
        "lat": 10.7629881,
        "lon": 106.6458873
      },
      "tags": {
        "highway": "residential",
        "lanes": "1",
        "name": "Đội Cung",
        "surface": "asphalt"
      }
    },
    {
      "type": "way",
      "id": 32582646,
      "center": {
        "lat": 10.7677911,
        "lon": 106.6639067
      },
      "tags": {
        "highway": "residential",
        "motor_vehicle": "no",
        "motorcycle": "yes",
        "name": "Hẻm 3/71 Thành Thái"
      }
    },
    {
      "type": "way",
      "id": 32582754,
      "center": {
        "lat": 10.7723326,
        "lon": 106.6698003
      },
      "tags": {
        "highway": "residential",
        "name": "Hẻm 740 Sư Vạn Hạnh"
      }
    },
    {
      "type": "way",
      "id": 32582931,
      "center": {
        "lat": 10.7786831,
        "lon": 106.6545957
      },
      "tags": {
        "highway": "residential",
        "name": "Tân Trang",
        "surface": "asphalt"
      }
    },
    {
      "type": "way",
      "id": 32583021,
      "center": {
        "lat": 10.7843119,
        "lon": 106.6554842
      },
      "tags": {
        "highway": "residential",
        "name": "An Tôn"
      }
    },
    {
      "type": "way",
      "id": 32583029,
      "center": {
        "lat": 10.762072,
        "lon": 106.6539304
      },
      "tags": {
        "hgv": "no",
        "highway": "residential",
        "lanes": "2",
        "name": "Công chúa Ngọc Hân",
        "surface": "asphalt"
      }
    },
    {
      "type": "way",
      "id": 32583059,
      "center": {
        "lat": 10.774181,
        "lon": 106.6481812
      },
      "tags": {
        "highway": "residential",
        "name": "Hẻm 243 Âu Cơ",
        "surface": "asphalt"
      }
    },
    {
      "type": "way",
      "id": 32583149,
      "center": {
        "lat": 10.774374,
        "lon": 106.6549694
      },
      "tags": {
        "highway": "residential",
        "name": "Đường Số 281"
      }
    },
    {
      "type": "way",
      "id": 32583210,
      "center": {
        "lat": 10.7883919,
        "lon": 106.6442718
      },
      "tags": {
        "highway": "service",
        "name": "Hẻm 88/24 Phan Sào Nam"
      }
    },
    {
      "type": "way",
      "id": 32583213,
      "center": {
        "lat": 10.7915176,
        "lon": 106.658258
      },
      "tags": {
        "highway": "service",
        "motorcar": "destination",
        "name": "Hẻm 1036 Cách Mạng Tháng 8"
      }
    },
    {
      "type": "way",
      "id": 32583215,
      "center": {
        "lat": 10.792811,
        "lon": 106.6711665
      },
      "tags": {
        "highway": "residential",
        "maxspeed:type": "VN:rural",
        "name": "Hẻm 176 Lê Văn Sỹ"
      }
    },
    {
      "type": "way",
      "id": 32583242,
      "center": {
        "lat": 10.7527037,
        "lon": 106.6628107
      },
      "tags": {
        "highway": "residential",
        "motorcar": "destination",
        "name": "Đường Phù Đổng Thiên Vương"
      }
    },
    {
      "type": "way",
      "id": 32583251,
      "center": {
        "lat": 10.7935322,
        "lon": 106.6567584
      },
      "tags": {
        "highway": "tertiary",
        "name": "Lê Bình",
        "surface": "asphalt"
      }
    },
    {
      "type": "way",
      "id": 32583408,
      "center": {
        "lat": 10.792907,
        "lon": 106.647623
      },
      "tags": {
        "highway": "residential",
        "name": "Trần Mai Ninh",
        "name:en": "Tran Mai Ninh"
      }
    },
    {
      "type": "way",
      "id": 32583433,
      "center": {
        "lat": 10.778831,
        "lon": 106.6689573
      },
      "tags": {
        "highway": "residential",
        "name": "Hẻm 163/24 Tô Hiến Thành"
      }
    },
    {
      "type": "way",
      "id": 32583435,
      "center": {
        "lat": 10.7785658,
        "lon": 106.6461597
      },
      "tags": {
        "highway": "residential",
        "motorcar": "destination",
        "name": "Hẻm 394 Âu Cơ",
        "surface": "asphalt"
      }
    },
    {
      "type": "way",
      "id": 32583436,
      "center": {
        "lat": 10.7797147,
        "lon": 106.6692904
      },
      "tags": {
        "highway": "residential",
        "name": "Hẻm 163 Tô Hiến Thành"
      }
    },
    {
      "type": "way",
      "id": 32583476,
      "center": {
        "lat": 10.7617196,
        "lon": 106.6530671
      },
      "tags": {
        "highway": "residential",
        "name": "Huyện Toại",
        "surface": "asphalt"
      }
    },
    {
      "type": "way",
      "id": 32583490,
      "center": {
        "lat": 10.7721149,
        "lon": 106.6703842
      },
      "tags": {
        "highway": "residential",
        "name": "Trần Thiện Chánh",
        "name:en": "Tran Thien Chanh",
        "oneway": "no"
      }
    },
    {
      "type": "way",
      "id": 32583524,
      "center": {
        "lat": 10.7650208,
        "lon": 106.663046
      },
      "tags": {
        "highway": "residential",
        "lanes": "2",
        "name": "Nguyễn Lâm",
        "surface": "asphalt"
      }
    },
    {
      "type": "way",
      "id": 32583579,
      "center": {
        "lat": 10.7722531,
        "lon": 106.6478793
      },
      "tags": {
        "highway": "service",
        "moped": "yes",
        "motorcar": "destination",
        "name": "Hẻm 506/49/65 Lạc Long Quân",
        "service": "alley"
      }
    },
    {
      "type": "way",
      "id": 32583619,
      "center": {
        "lat": 10.7621042,
        "lon": 106.6719806
      },
      "tags": {
        "highway": "residential"
      }
    },
    {
      "type": "way",
      "id": 32583623,
      "center": {
        "lat": 10.7616704,
        "lon": 106.672051
      },
      "tags": {
        "highway": "residential"
      }
    },
    {
      "type": "way",
      "id": 32583663,
      "center": {
        "lat": 10.7651459,
        "lon": 106.6477497
      },
      "tags": {
        "highway": "residential",
        "lanes": "1",
        "name": "Đường Đội Cung",
        "surface": "concrete"
      }
    },
    {
      "type": "way",
      "id": 32583702,
      "center": {
        "lat": 10.7691384,
        "lon": 106.6453352
      },
      "tags": {
        "highway": "residential",
        "maxspeed": "50",
        "maxweight:hgv": "1.5",
        "name": "Hẻm 416 Lạc Long Quân",
        "surface": "asphalt"
      }
    },
    {
      "type": "way",
      "id": 32583764,
      "center": {
        "lat": 10.7619906,
        "lon": 106.6720038
      },
      "tags": {
        "highway": "residential"
      }
    },
    {
      "type": "way",
      "id": 32583765,
      "center": {
        "lat": 10.7617872,
        "lon": 106.6739226
      },
      "tags": {
        "highway": "residential",
        "surface": "asphalt"
      }
    },
    {
      "type": "way",
      "id": 32583899,
      "center": {
        "lat": 10.7789759,
        "lon": 106.667602
      },
      "tags": {
        "highway": "residential",
        "name": "Hẻm 243/1 Tô Hiến Thành"
      }
    },
    {
      "type": "way",
      "id": 32583903,
      "center": {
        "lat": 10.779297,
        "lon": 106.6654123
      },
      "tags": {
        "highway": "residential",
        "name": "Hẻm 266 Tô Hiến Thành"
      }
    },
    {
      "type": "way",
      "id": 32583904,
      "center": {
        "lat": 10.780515,
        "lon": 106.6735602
      },
      "tags": {
        "highway": "residential",
        "lane_markings": "no",
        "motorcar": "destination",
        "name": "Hẻm 463B Cách mạng tháng 8",
        "surface": "concrete:plates"
      }
    },
    {
      "type": "way",
      "id": 32584055,
      "center": {
        "lat": 10.7864303,
        "lon": 106.6484315
      },
      "tags": {
        "highway": "residential",
        "name": "Bùi Thế Mỹ"
      }
    },
    {
      "type": "way",
      "id": 32584160,
      "center": {
        "lat": 10.7913506,
        "lon": 106.6509834
      },
      "tags": {
        "highway": "residential",
        "name": "Hẻm 66 Tái Thiết"
      }
    },
    {
      "type": "way",
      "id": 32584318,
      "center": {
        "lat": 10.7829087,
        "lon": 106.6592132
      },
      "tags": {
        "highway": "residential",
        "lanes": "2",
        "name": "Đất Thánh",
        "name:en": "Dat Thanh",
        "surface": "asphalt"
      }
    },
    {
      "type": "way",
      "id": 32584378,
      "center": {
        "lat": 10.7709033,
        "lon": 106.6484148
      },
      "tags": {
        "highway": "residential",
        "name": "Hẻm 127/50-52 Âu Cơ"
      }
    },
    {
      "type": "way",
      "id": 32584382,
      "center": {
        "lat": 10.770221,
        "lon": 106.6415603
      },
      "tags": {
        "highway": "residential",
        "maxweight:hgv": "1",
        "surface": "asphalt"
      }
    },
    {
      "type": "way",
      "id": 32584383,
      "center": {
        "lat": 10.7708113,
        "lon": 106.661615
      },
      "tags": {
        "check_date:surface": "2025-08-07",
        "highway": "residential",
        "lane_markings": "no",
        "name": "Hẻm 7A/33 Thành Thái",
        "surface": "paved"
      }
    },
    {
      "type": "way",
      "id": 32584384,
      "center": {
        "lat": 10.7718698,
        "lon": 106.663709
      },
      "tags": {
        "highway": "residential",
        "lanes": "2",
        "name": "Hẻm 51 Thành Thái",
        "surface": "asphalt"
      }
    },
    {
      "type": "way",
      "id": 32584426,
      "center": {
        "lat": 10.7682444,
        "lon": 106.6460287
      },
      "tags": {
        "highway": "residential",
        "maxspeed": "50",
        "maxweight": "1.5",
        "moped": "yes",
        "motorcar": "destination",
        "name": "Hẻm 86 Ông Ích Khiêm",
        "surface": "concrete"
      }
    },
    {
      "type": "way",
      "id": 32584497,
      "center": {
        "lat": 10.7906075,
        "lon": 106.6683409
      },
      "tags": {
        "highway": "residential",
        "name": "Hẻm 525 Huỳnh Văn Bánh"
      }
    },
    {
      "type": "way",
      "id": 32584525,
      "center": {
        "lat": 10.7754021,
        "lon": 106.655578
      },
      "tags": {
        "highway": "residential",
        "name": "Hẻm 297 Lý Thường Kiệt",
        "name:en": "Alley 297 Ly Thuong Kiet"
      }
    },
    {
      "type": "way",
      "id": 32584708,
      "center": {
        "lat": 10.7628101,
        "lon": 106.6478206
      },
      "tags": {
        "highway": "residential",
        "lanes": "2",
        "maxweight": "2.5",
        "name": "Đường số 7",
        "surface": "asphalt"
      }
    },
    {
      "type": "way",
      "id": 32584713,
      "center": {
        "lat": 10.7623625,
        "lon": 106.6488849
      },
      "tags": {
        "highway": "residential",
        "lanes": "2",
        "name": "Đường số 5",
        "surface": "asphalt"
      }
    },
    {
      "type": "way",
      "id": 32584717,
      "center": {
        "lat": 10.7618499,
        "lon": 106.6496078
      },
      "tags": {
        "highway": "residential",
        "name": "Đường số 3",
        "surface": "asphalt"
      }
    },
    {
      "type": "way",
      "id": 32584718,
      "center": {
        "lat": 10.7730221,
        "lon": 106.6549914
      },
      "tags": {
        "highway": "residential",
        "name": "Đường Số 3"
      }
    },
    {
      "type": "way",
      "id": 32584774,
      "center": {
        "lat": 10.7821533,
        "lon": 106.6624893
      },
      "tags": {
        "highway": "residential",
        "name": "Thất Sơn",
        "surface": "asphalt"
      }
    },
    {
      "type": "way",
      "id": 32584853,
      "center": {
        "lat": 10.7633386,
        "lon": 106.6471879
      },
      "tags": {
        "highway": "residential",
        "lanes": "2",
        "name": "Đường số 9",
        "surface": "asphalt"
      }
    },
    {
      "type": "way",
      "id": 32585081,
      "center": {
        "lat": 10.7556772,
        "lon": 106.6716628
      },
      "tags": {
        "highway": "residential"
      }
    },
    {
      "type": "way",
      "id": 32585090,
      "center": {
        "lat": 10.7559435,
        "lon": 106.6491327
      },
      "tags": {
        "highway": "service",
        "motorcar": "destination",
        "name": "Hẻm 30 Lò Siêu",
        "service": "alley"
      }
    },
    {
      "type": "way",
      "id": 32585186,
      "center": {
        "lat": 10.7717033,
        "lon": 106.6508081
      },
      "tags": {
        "highway": "residential",
        "name": "Hẻm 144 Âu Cơ",
        "surface": "asphalt"
      }
    },
    {
      "type": "way",
      "id": 32585188,
      "center": {
        "lat": 10.7705776,
        "lon": 106.6625849
      },
      "tags": {
        "highway": "residential",
        "lanes": "2",
        "name": "Hẻm 7A Thành Thái",
        "surface": "asphalt"
      }
    },
    {
      "type": "way",
      "id": 32585189,
      "center": {
        "lat": 10.7722401,
        "lon": 106.6472415
      },
      "tags": {
        "highway": "residential",
        "moped": "yes",
        "motor_vehicle": "no",
        "motorcycle": "yes",
        "name": "Hẻm 568/5 Lạc Long Quân"
      }
    },
    {
      "type": "way",
      "id": 32585194,
      "center": {
        "lat": 10.7610954,
        "lon": 106.6536655
      },
      "tags": {
        "highway": "residential",
        "lanes": "2",
        "name": "Tuệ Tĩnh",
        "surface": "asphalt"
      }
    },
    {
      "type": "way",
      "id": 32585195,
      "center": {
        "lat": 10.7636057,
        "lon": 106.6551657
      },
      "tags": {
        "highway": "residential",
        "lanes": "2",
        "maxweight:conditional": "2.5 @ (06:00-22:00)",
        "name": "Công chúa Ngọc Hân",
        "surface": "asphalt"
      }
    },
    {
      "type": "way",
      "id": 32585324,
      "center": {
        "lat": 10.7604576,
        "lon": 106.6670493
      },
      "tags": {
        "highway": "residential",
        "lanes": "2",
        "name": "Đào Duy Từ",
        "surface": "asphalt"
      }
    },
    {
      "type": "way",
      "id": 32585371,
      "center": {
        "lat": 10.7914267,
        "lon": 106.6519047
      },
      "tags": {
        "highway": "residential",
        "name": "Tái Thiết"
      }
    },
    {
      "type": "way",
      "id": 32585374,
      "center": {
        "lat": 10.7907726,
        "lon": 106.6547733
      },
      "tags": {
        "highway": "residential",
        "name": "Hẻm 1073 Cách mạng tháng 8"
      }
    },
    {
      "type": "way",
      "id": 32585376,
      "center": {
        "lat": 10.7959463,
        "lon": 106.6711466
      },
      "tags": {
        "addr:city": "Ho Chi Minh City",
        "addr:district": "Phu Nhuan",
        "highway": "residential",
        "maxspeed": "50",
        "name": "Hoàng Diệu",
        "name:en": "Hoang Dieu"
      }
    },
    {
      "type": "way",
      "id": 32585394,
      "center": {
        "lat": 10.777902,
        "lon": 106.6655049
      },
      "tags": {
        "highway": "tertiary",
        "lanes": "2",
        "name": "Sư Vạn Hạnh",
        "name:en": "Su Van Hanh",
        "surface": "asphalt"
      }
    },
    {
      "type": "way",
      "id": 32585534,
      "center": {
        "lat": 10.7593856,
        "lon": 106.6474366
      },
      "tags": {
        "highway": "residential",
        "name": "Hẻm 140 Hàn Hải Nguyên",
        "surface": "asphalt"
      }
    },
    {
      "type": "way",
      "id": 32585535,
      "center": {
        "lat": 10.7594649,
        "lon": 106.6501636
      },
      "tags": {
        "highway": "residential",
        "name": "Hẻm 115 Lò Siêu",
        "surface": "asphalt"
      }
    },
    {
      "type": "way",
      "id": 32585542,
      "center": {
        "lat": 10.7584265,
        "lon": 106.6727204
      },
      "tags": {
        "highway": "residential",
        "lanes": "2",
        "maxspeed": "50",
        "name": "Đường Yết Kiêu",
        "surface": "asphalt"
      }
    },
    {
      "type": "way",
      "id": 32585567,
      "center": {
        "lat": 10.7879844,
        "lon": 106.6525126
      },
      "tags": {
        "highway": "residential",
        "name": "Tân Xuân"
      }
    },
    {
      "type": "way",
      "id": 32585610,
      "center": {
        "lat": 10.7942607,
        "lon": 106.6675651
      },
      "tags": {
        "highway": "residential",
        "name": "Hẻm 281/12 Lê Văn Sỹ"
      }
    },
    {
      "type": "way",
      "id": 32585690,
      "center": {
        "lat": 10.758099,
        "lon": 106.6676925
      },
      "tags": {
        "alt_name": "Minh Mạng",
        "bicycle": "yes",
        "foot": "yes",
        "highway": "primary",
        "horse": "no",
        "lanes": "1",
        "maxspeed": "50",
        "name": "Ngô Gia Tự",
        "old_name": "Avenue Le Myre de Villers;Đại lộ Minh Mạng",
        "oneway": "yes",
        "surface": "asphalt"
      }
    },
    {
      "type": "way",
      "id": 32585697,
      "center": {
        "lat": 10.7794488,
        "lon": 106.6473933
      },
      "tags": {
        "hgv": "no",
        "highway": "residential",
        "name": "Đường Trần Văn Quang",
        "surface": "asphalt"
      }
    },
    {
      "type": "way",
      "id": 32585811,
      "center": {
        "lat": 10.7710128,
        "lon": 106.6488546
      },
      "tags": {
        "highway": "residential",
        "maxweight": "1.5",
        "name": "Hẻm 127 Âu Cơ",
        "surface": "asphalt"
      }
    },
    {
      "type": "way",
      "id": 32585812,
      "center": {
        "lat": 10.7700394,
        "lon": 106.6620151
      },
      "tags": {
        "highway": "residential",
        "lanes": "2",
        "name": "Hẻm 7A/5 Thành Thái",
        "surface": "asphalt"
      }
    },
    {
      "type": "way",
      "id": 32586018,
      "center": {
        "lat": 10.7599947,
        "lon": 106.6468765
      },
      "tags": {
        "highway": "residential",
        "name": "Hẻm 200 Thái Phiên"
      }
    },
    {
      "type": "way",
      "id": 32586024,
      "center": {
        "lat": 10.7593079,
        "lon": 106.6636716
      },
      "tags": {
        "highway": "residential",
        "lanes": "2",
        "name": "Đường Hưng Long",
        "surface": "asphalt"
      }
    },
    {
      "type": "way",
      "id": 32586028,
      "center": {
        "lat": 10.7598302,
        "lon": 106.6449975
      },
      "tags": {
        "highway": "residential",
        "name": "Hẻm 394 Minh Phụng",
        "surface": "asphalt"
      }
    },
    {
      "type": "way",
      "id": 32586065,
      "center": {
        "lat": 10.7553757,
        "lon": 106.6561045
      },
      "tags": {
        "highway": "residential",
        "lanes": "2",
        "name": "Đường Phạm Hữu Chí",
        "surface": "asphalt"
      }
    },
    {
      "type": "way",
      "id": 32586095,
      "center": {
        "lat": 10.772039,
        "lon": 106.6564653
      },
      "tags": {
        "highway": "residential",
        "name": "Đường Số 16"
      }
    },
    {
      "type": "way",
      "id": 32586165,
      "center": {
        "lat": 10.7829511,
        "lon": 106.6484298
      },
      "tags": {
        "highway": "tertiary",
        "maxspeed": "30",
        "name": "Ni Sư Huỳnh Liên",
        "surface": "asphalt"
      }
    },
    {
      "type": "way",
      "id": 32586227,
      "center": {
        "lat": 10.7666678,
        "lon": 106.6718776
      },
      "tags": {
        "highway": "tertiary",
        "lanes": "2",
        "name": "Bà Hạt",
        "surface": "asphalt"
      }
    },
    {
      "type": "way",
      "id": 32586228,
      "center": {
        "lat": 10.7652901,
        "lon": 106.6658957
      },
      "tags": {
        "highway": "tertiary",
        "lanes": "2",
        "name": "Bà Hạt",
        "surface": "asphalt"
      }
    },
    {
      "type": "way",
      "id": 32586402,
      "center": {
        "lat": 10.7774466,
        "lon": 106.6543315
      },
      "tags": {
        "highway": "residential",
        "name": "Hẻm 2 Thiên Phước"
      }
    },
    {
      "type": "way",
      "id": 32586407,
      "center": {
        "lat": 10.7759392,
        "lon": 106.6577022
      },
      "tags": {
        "highway": "residential",
        "name": "Hẻm 354 Lý Thường Kiệt"
      }
    },
    {
      "type": "way",
      "id": 32586480,
      "center": {
        "lat": 10.7862587,
        "lon": 106.6589447
      },
      "tags": {
        "highway": "residential",
        "name": "Lộc Vinh",
        "name:en": "Loc Vinh"
      }
    },
    {
      "type": "way",
      "id": 32586481,
      "center": {
        "lat": 10.7804394,
        "lon": 106.6715765
      },
      "tags": {
        "highway": "residential",
        "name": "Hẻm 493A Cách mạng tháng 8"
      }
    },
    {
      "type": "way",
      "id": 32586484,
      "center": {
        "lat": 10.7818103,
        "lon": 106.6729993
      },
      "tags": {
        "highway": "residential",
        "motorcar": "destination",
        "name": "Hẻm 493 Cách Mạng Tháng 8"
      }
    },
    {
      "type": "way",
      "id": 32586485,
      "center": {
        "lat": 10.7805262,
        "lon": 106.653682
      },
      "tags": {
        "highway": "residential",
        "motorcar": "destination",
        "name": "Hẻm 25 Thành Mỹ"
      }
    },
    {
      "type": "way",
      "id": 32586724,
      "center": {
        "lat": 10.7912023,
        "lon": 106.6629028
      },
      "tags": {
        "highway": "service",
        "motorcar": "destination",
        "name": "Hẻm 23 Lưu Nhân Chú",
        "service": "alley"
      }
    },
    {
      "type": "way",
      "id": 32586914,
      "center": {
        "lat": 10.7755685,
        "lon": 106.6551616
      },
      "tags": {
        "highway": "residential",
        "name": "Hẻm 299 Lý Thường Kiệt",
        "name:en": "Alley 299 Ly Thuong Kiet"
      }
    },
    {
      "type": "way",
      "id": 32586974,
      "center": {
        "lat": 10.7871577,
        "lon": 106.6560318
      },
      "tags": {
        "highway": "residential",
        "name": "Vân Côi",
        "name:en": "Van Coi"
      }
    },
    {
      "type": "way",
      "id": 32587068,
      "center": {
        "lat": 10.7617502,
        "lon": 106.6614273
      },
      "tags": {
        "highway": "residential",
        "lanes": "2",
        "name": "Hẻm 326 Đường Tân Phước",
        "surface": "asphalt"
      }
    },
    {
      "type": "way",
      "id": 32587114,
      "center": {
        "lat": 10.7723985,
        "lon": 106.6541189
      },
      "tags": {
        "highway": "residential",
        "name": "Đường Số 52"
      }
    },
    {
      "type": "way",
      "id": 32587133,
      "center": {
        "lat": 10.793365,
        "lon": 106.6675345
      },
      "tags": {
        "highway": "residential",
        "name": "Hẻm 281/19-21 Lê Văn Sỹ"
      }
    },
    {
      "type": "way",
      "id": 32587208,
      "center": {
        "lat": 10.7903776,
        "lon": 106.6763964
      },
      "tags": {
        "highway": "service",
        "motorcar": "destination",
        "service": "alley"
      }
    },
    {
      "type": "way",
      "id": 32587290,
      "center": {
        "lat": 10.7756922,
        "lon": 106.6678695
      },
      "tags": {
        "highway": "residential",
        "name": "Hẻm 824 Sư Vạn Hạnh"
      }
    },
    {
      "type": "way",
      "id": 32587322,
      "center": {
        "lat": 10.7619486,
        "lon": 106.6602007
      },
      "tags": {
        "highway": "tertiary",
        "lanes": "2",
        "name": "Vĩnh Viễn",
        "surface": "asphalt"
      }
    },
    {
      "type": "way",
      "id": 32587325,
      "center": {
        "lat": 10.7633246,
        "lon": 106.6660409
      },
      "tags": {
        "highway": "tertiary",
        "lanes": "2",
        "name": "Vĩnh Viễn",
        "surface": "asphalt"
      }
    },
    {
      "type": "way",
      "id": 32587326,
      "center": {
        "lat": 10.765113,
        "lon": 106.6737308
      },
      "tags": {
        "highway": "tertiary",
        "name": "Vĩnh Viễn",
        "psv:conditional": "no @ (06:00-22:00)",
        "surface": "asphalt"
      }
    },
    {
      "type": "way",
      "id": 32587405,
      "center": {
        "lat": 10.7870913,
        "lon": 106.6523427
      },
      "tags": {
        "highway": "residential",
        "name": "Tân Thọ",
        "surface": "asphalt"
      }
    },
    {
      "type": "way",
      "id": 32587468,
      "center": {
        "lat": 10.7651325,
        "lon": 106.6708434
      },
      "tags": {
        "highway": "residential",
        "motorcar": "destination"
      }
    },
    {
      "type": "way",
      "id": 32587469,
      "center": {
        "lat": 10.7655939,
        "lon": 106.6687859
      },
      "tags": {
        "highway": "residential",
        "name": "Hẻm 383 Bà Hạt",
        "surface": "asphalt"
      }
    },
    {
      "type": "way",
      "id": 32587479,
      "center": {
        "lat": 10.7647474,
        "lon": 106.6706856
      },
      "tags": {
        "highway": "residential",
        "name": "Hẻm 193 Bà Hạt",
        "surface": "asphalt"
      }
    },
    {
      "type": "way",
      "id": 32587788,
      "center": {
        "lat": 10.7706075,
        "lon": 106.6609037
      },
      "tags": {
        "highway": "residential",
        "motorcycle": "yes",
        "name": "Hẻm 7B Thành Thái"
      }
    },
    {
      "type": "way",
      "id": 32587814,
      "center": {
        "lat": 10.7721179,
        "lon": 106.6598821
      },
      "tags": {
        "highway": "secondary",
        "lanes": "2",
        "name": "Tô Hiến Thành",
        "name:en": "To Hien Thanh",
        "surface": "asphalt"
      }
    },
    {
      "type": "way",
      "id": 32587981,
      "center": {
        "lat": 10.765369,
        "lon": 106.6763695
      },
      "tags": {
        "highway": "service",
        "motor_vehicle": "no",
        "motorcycle": "yes",
        "name": "Hẻm 105 Hồ Thị Kỷ",
        "surface": "asphalt"
      }
    },
    {
      "type": "way",
      "id": 32587984,
      "center": {
        "lat": 10.7649049,
        "lon": 106.6712729
      },
      "tags": {
        "highway": "residential",
        "name": "Hẻm 152 Vĩnh Viễn",
        "surface": "asphalt"
      }
    },
    {
      "type": "way",
      "id": 32587985,
      "center": {
        "lat": 10.7653494,
        "lon": 106.6635988
      },
      "tags": {
        "highway": "residential",
        "lane_markings": "no",
        "name": "Hẻm 580 Bà Hạt",
        "surface": "asphalt"
      }
    },
    {
      "type": "way",
      "id": 32587987,
      "center": {
        "lat": 10.7655488,
        "lon": 106.675752
      },
      "tags": {
        "highway": "service",
        "moped": "yes",
        "motor_vehicle": "no",
        "motorcycle": "yes",
        "name": "Hẻm 438 Lê Hồng Phong",
        "surface": "concrete"
      }
    },
    {
      "type": "way",
      "id": 32588119,
      "center": {
        "lat": 10.7591581,
        "lon": 106.6561471
      },
      "tags": {
        "highway": "tertiary",
        "lanes": "2",
        "name": "Trần Quý",
        "surface": "asphalt"
      }
    },
    {
      "type": "way",
      "id": 32588135,
      "center": {
        "lat": 10.7579151,
        "lon": 106.6622891
      },
      "tags": {
        "highway": "residential",
        "name": "Đường Tăng Bạt Hổ",
        "surface": "asphalt"
      }
    },
    {
      "type": "way",
      "id": 32588349,
      "center": {
        "lat": 10.7784952,
        "lon": 106.6673436
      },
      "tags": {
        "highway": "residential",
        "name": "Hẻm 243 Tô Hiến Thành"
      }
    },
    {
      "type": "way",
      "id": 32588432,
      "center": {
        "lat": 10.7643895,
        "lon": 106.6798046
      },
      "tags": {
        "bus:lanes": "no|yes|no",
        "highway": "primary",
        "lanes": "3",
        "maxspeed": "60",
        "moped:lanes": "no|yes|yes",
        "motor_vehicle:lanes": "designated|yes|no",
        "motorcycle:lanes": "no|yes|yes",
        "name": "Hùng Vương",
        "oneway": "yes",
        "surface": "asphalt"
      }
    },
    {
      "type": "way",
      "id": 32588527,
      "center": {
        "lat": 10.7824064,
        "lon": 106.6674528
      },
      "tags": {
        "highway": "residential",
        "lanes": "2",
        "name": "Hồ Bá Kiện",
        "name:en": "Ho Ba Kien",
        "surface": "asphalt"
      }
    },
    {
      "type": "way",
      "id": 32588532,
      "center": {
        "lat": 10.7786893,
        "lon": 106.6800441
      },
      "tags": {
        "hgv:conditional": "no @ (06:00-22:00)",
        "highway": "primary",
        "lanes": "2",
        "name": "Cách Mạng Tháng Tám",
        "name:en": "August Revolution St.",
        "name:ja": "8月革命通り",
        "note": "looks like this splits again, can't confirm.",
        "oneway": "no",
        "sidewalk": "both",
        "surface": "asphalt"
      }
    },
    {
      "type": "way",
      "id": 32588603,
      "center": {
        "lat": 10.7554437,
        "lon": 106.668646
      },
      "tags": {
        "bus": "no",
        "highway": "residential",
        "lanes": "2",
        "name": "Đường Phước Hưng",
        "psv": "no",
        "surface": "asphalt"
      }
    },
    {
      "type": "way",
      "id": 32588655,
      "center": {
        "lat": 10.78544,
        "lon": 106.6564287
      },
      "tags": {
        "highway": "residential",
        "name": "Bến Cát",
        "surface": "asphalt"
      }
    },
    {
      "type": "way",
      "id": 32588772,
      "center": {
        "lat": 10.7868363,
        "lon": 106.6498949
      },
      "tags": {
        "highway": "residential",
        "motorcar": "destination",
        "name": "Hẻm 985 Lạc Long Quân"
      }
    },
    {
      "type": "way",
      "id": 32588774,
      "center": {
        "lat": 10.7643048,
        "lon": 106.6648546
      },
      "tags": {
        "highway": "residential",
        "moped": "yes",
        "name": "Hẻm 232 Ngô Quyền",
        "surface": "asphalt"
      }
    },
    {
      "type": "way",
      "id": 32588778,
      "center": {
        "lat": 10.7643208,
        "lon": 106.6762203
      },
      "tags": {
        "highway": "service",
        "motorcar": "destination",
        "name": "Hẻm 382 Lê Hồng Phong",
        "surface": "concrete"
      }
    },
    {
      "type": "way",
      "id": 32588801,
      "center": {
        "lat": 10.7797453,
        "lon": 106.6380419
      },
      "tags": {
        "fixme": "name",
        "highway": "residential",
        "name": "Đường Huỳnh Thiện Lộc",
        "surface": "asphalt"
      }
    },
    {
      "type": "way",
      "id": 32588921,
      "center": {
        "lat": 10.7639507,
        "lon": 106.6462806
      },
      "tags": {
        "highway": "residential",
        "name": "Hẻm 160 Đội Cung",
        "surface": "asphalt"
      }
    },
    {
      "type": "way",
      "id": 32588977,
      "center": {
        "lat": 10.7903768,
        "lon": 106.6569602
      },
      "tags": {
        "highway": "tertiary",
        "name": "Bành Văn Trân"
      }
    },
    {
      "type": "way",
      "id": 32589057,
      "center": {
        "lat": 10.7800134,
        "lon": 106.6522814
      },
      "tags": {
        "highway": "residential",
        "name": "Hẻm 55 Thành Mỹ",
        "name:en": "Alley 55 Thanh My"
      }
    },
    {
      "type": "way",
      "id": 35085677,
      "center": {
        "lat": 10.7919953,
        "lon": 106.662367
      },
      "tags": {
        "addr:city": "Ho Chi Minh City",
        "addr:district": "Tan Binh",
        "highway": "tertiary",
        "lanes": "3",
        "name": "Hoàng Sa",
        "oneway": "yes",
        "surface": "asphalt"
      }
    },
    {
      "type": "way",
      "id": 35085736,
      "center": {
        "lat": 10.7927823,
        "lon": 106.6703149
      },
      "tags": {
        "highway": "secondary",
        "lanes": "2",
        "maxspeed:type": "VN:rural",
        "name": "Lê Văn Sỹ",
        "smoothness": "excellent",
        "surface": "asphalt"
      }
    },
    {
      "type": "way",
      "id": 35112673,
      "center": {
        "lat": 10.7901825,
        "lon": 106.6752712
      },
      "tags": {
        "highway": "service",
        "motorcar": "destination",
        "service": "alley"
      }
    },
    {
      "type": "way",
      "id": 35112676,
      "center": {
        "lat": 10.7678198,
        "lon": 106.6820676
      },
      "tags": {
        "highway": "service",
        "motorcar": "no",
        "name": "Hẻm 16/47 Nguyễn Thiện Thuật",
        "service": "alley"
      }
    },
    {
      "type": "way",
      "id": 35112698,
      "center": {
        "lat": 10.7873358,
        "lon": 106.6793896
      },
      "tags": {
        "bicycle": "yes",
        "foot": "yes",
        "highway": "residential",
        "motorcycle": "yes",
        "name": "Hẻm 304 Lê Văn Sỹ"
      }
    },
    {
      "type": "way",
      "id": 35112723,
      "center": {
        "lat": 10.770775,
        "lon": 106.6835404
      },
      "tags": {
        "highway": "residential",
        "lane_markings": "no",
        "motorcar": "destination",
        "name": "Hẻm 411 Nguyễn Ðình Chiểu",
        "service": "alley",
        "surface": "asphalt"
      }
    },
    {
      "type": "way",
      "id": 35112726,
      "center": {
        "lat": 10.7700569,
        "lon": 106.6829154
      },
      "tags": {
        "bicycle": "yes",
        "foot": "yes",
        "highway": "service",
        "motorcycle": "yes",
        "service": "alley"
      }
    },
    {
      "type": "way",
      "id": 35112744,
      "center": {
        "lat": 10.7873738,
        "lon": 106.676
      },
      "tags": {
        "highway": "residential",
        "motorcar": "destination"
      }
    },
    {
      "type": "way",
      "id": 35112746,
      "center": {
        "lat": 10.7865537,
        "lon": 106.6758954
      },
      "tags": {
        "highway": "residential",
        "name": "Hẻm 972 Trường Sa"
      }
    },
    {
      "type": "way",
      "id": 35112756,
      "center": {
        "lat": 10.7673592,
        "lon": 106.6762071
      },
      "tags": {
        "highway": "service",
        "motorcar": "destination",
        "service": "alley"
      }
    },
    {
      "type": "way",
      "id": 35112770,
      "center": {
        "lat": 10.7679482,
        "lon": 106.6832768
      },
      "tags": {
        "highway": "service",
        "motorcar": "no",
        "service": "alley"
      }
    },
    {
      "type": "way",
      "id": 35112775,
      "center": {
        "lat": 10.7673681,
        "lon": 106.6768764
      },
      "tags": {
        "bicycle": "yes",
        "foot": "yes",
        "highway": "service",
        "motorcycle": "yes",
        "service": "alley"
      }
    },
    {
      "type": "way",
      "id": 35112781,
      "center": {
        "lat": 10.7672345,
        "lon": 106.6769284
      },
      "tags": {
        "bicycle": "yes",
        "foot": "yes",
        "highway": "service",
        "motorcar": "destination",
        "motorcycle": "yes",
        "service": "alley"
      }
    },
    {
      "type": "way",
      "id": 35112796,
      "center": {
        "lat": 10.7713996,
        "lon": 106.6796644
      },
      "tags": {
        "highway": "service",
        "motorcar": "destination",
        "name": "Hẻm 443 Ðiện Biên Phủ",
        "service": "alley",
        "surface": "asphalt"
      }
    },
    {
      "type": "way",
      "id": 35112817,
      "center": {
        "lat": 10.7692058,
        "lon": 106.6837131
      },
      "tags": {
        "bicycle": "yes",
        "foot": "yes",
        "highway": "service",
        "motorcar": "no",
        "motorcycle": "destination",
        "service": "alley",
        "surface": "concrete"
      }
    },
    {
      "type": "way",
      "id": 35112820,
      "center": {
        "lat": 10.7697917,
        "lon": 106.6828699
      },
      "tags": {
        "bicycle": "yes",
        "foot": "yes",
        "highway": "service",
        "motorcycle": "yes",
        "service": "alley"
      }
    },
    {
      "type": "way",
      "id": 35112827,
      "center": {
        "lat": 10.7708008,
        "lon": 106.6799325
      },
      "tags": {
        "bicycle": "yes",
        "foot": "yes",
        "highway": "service",
        "motorcar": "no",
        "motorcycle": "yes",
        "name": "Hẻm 212/103 Nguyễn Thiện Thuật",
        "service": "alley"
      }
    },
    {
      "type": "way",
      "id": 35112835,
      "center": {
        "lat": 10.7897282,
        "lon": 106.67706
      },
      "tags": {
        "highway": "residential",
        "name": "Hẻm 386 Lê Văn Sỹ"
      }
    },
    {
      "type": "way",
      "id": 35112836,
      "center": {
        "lat": 10.7744438,
        "lon": 106.683822
      },
      "tags": {
        "description": "104",
        "highway": "tertiary",
        "lanes": "2",
        "maxspeed": "40",
        "name": "Nguyễn Thượng Hiền",
        "name:en": "Nguyen Thuong Hien Street",
        "name:zh": "阮尚贤路",
        "oneway": "no",
        "surface": "asphalt"
      }
    },
    {
      "type": "way",
      "id": 35112838,
      "center": {
        "lat": 10.7665514,
        "lon": 106.679203
      },
      "tags": {
        "highway": "residential",
        "lane_markings": "no",
        "motorcar": "destination",
        "name": "Hẻm 637 Nguyễn Ðình Chiểu",
        "surface": "asphalt"
      }
    },
    {
      "type": "way",
      "id": 35112854,
      "center": {
        "lat": 10.7712054,
        "lon": 106.6775447
      },
      "tags": {
        "highway": "service",
        "service": "alley"
      }
    },
    {
      "type": "way",
      "id": 35112857,
      "center": {
        "lat": 10.7744756,
        "lon": 106.6839467
      },
      "tags": {
        "highway": "service",
        "motorcar": "destination",
        "name": "Hẻm 416 Nguyễn Ðình Chiểu",
        "service": "alley",
        "surface": "asphalt"
      }
    },
    {
      "type": "way",
      "id": 35112860,
      "center": {
        "lat": 10.7861305,
        "lon": 106.6728428
      },
      "tags": {
        "highway": "service",
        "motorcar": "destination",
        "name": "Hẻm 205 Trần Văn Ðang"
      }
    },
    {
      "type": "way",
      "id": 35112863,
      "center": {
        "lat": 10.7856786,
        "lon": 106.6722472
      },
      "tags": {
        "bicycle": "yes",
        "foot": "yes",
        "highway": "residential",
        "motorcycle": "yes",
        "name": "Hẻm 205/15 Trần Văn Ðang"
      }
    },
    {
      "type": "way",
      "id": 35112866,
      "center": {
        "lat": 10.7860645,
        "lon": 106.6723502
      },
      "tags": {
        "bicycle": "yes",
        "foot": "yes",
        "highway": "residential",
        "motorcycle": "yes",
        "name": "Hẻm 205/39 Trần Văn Ðang"
      }
    },
    {
      "type": "way",
      "id": 35112876,
      "center": {
        "lat": 10.7715826,
        "lon": 106.6813184
      },
      "tags": {
        "bicycle": "yes",
        "foot": "yes",
        "highway": "service",
        "motorcycle": "yes",
        "name": "Hẻm 109 Ðường số 4",
        "service": "alley"
      }
    },
    {
      "type": "way",
      "id": 35112882,
      "center": {
        "lat": 10.7851621,
        "lon": 106.6722697
      },
      "tags": {
        "highway": "residential",
        "motorcar": "destination",
        "name": "Hẻm 205 Trần Văn Ðang"
      }
    },
    {
      "type": "way",
      "id": 35112905,
      "center": {
        "lat": 10.7743782,
        "lon": 106.6833499
      },
      "tags": {
        "highway": "residential",
        "motorcar": "destination"
      }
    },
    {
      "type": "way",
      "id": 35112908,
      "center": {
        "lat": 10.776762,
        "lon": 106.6849383
      },
      "tags": {
        "highway": "residential",
        "lanes": "2",
        "name": "Lê Ngô Cát",
        "name:en": "Le Ngo Cat Street",
        "name:zh": "黎吴吉街",
        "surface": "asphalt"
      }
    },
    {
      "type": "way",
      "id": 35112910,
      "center": {
        "lat": 10.7705797,
        "lon": 106.6773875
      },
      "tags": {
        "highway": "service",
        "motorcar": "destination",
        "name": "Hẻm 541 Ðiện Biên Phủ",
        "service": "alley",
        "surface": "asphalt"
      }
    },
    {
      "type": "way",
      "id": 35112923,
      "center": {
        "lat": 10.7726671,
        "lon": 106.6831483
      },
      "tags": {
        "addr:city": "Hồ Chí Minh",
        "addr:subdistrict": "4",
        "addr:ward": "3",
        "highway": "residential",
        "motorcar": "destination",
        "name": "Hẻm 44 Vườn Chuối",
        "surface": "asphalt"
      }
    },
    {
      "type": "way",
      "id": 35112943,
      "center": {
        "lat": 10.7683096,
        "lon": 106.6832926
      },
      "tags": {
        "bicycle": "yes",
        "foot": "yes",
        "highway": "service",
        "motorcar": "destination",
        "motorcycle": "yes",
        "service": "alley"
      }
    },
    {
      "type": "way",
      "id": 35112951,
      "center": {
        "lat": 10.7685184,
        "lon": 106.6826752
      },
      "tags": {
        "highway": "service",
        "motorcar": "no",
        "motorcycle": "yes",
        "name": "Hẻm 16/87 Nguyễn Thiện Thuật",
        "service": "alley"
      }
    },
    {
      "type": "way",
      "id": 35112961,
      "center": {
        "lat": 10.7710878,
        "lon": 106.6822261
      },
      "tags": {
        "bicycle": "yes",
        "foot": "yes",
        "highway": "service",
        "moped": "yes",
        "name": "Hẻm 554/15 Nguyễn Ðình Chiểu",
        "service": "alley",
        "surface": "asphalt"
      }
    },
    {
      "type": "way",
      "id": 35112965,
      "center": {
        "lat": 10.7845067,
        "lon": 106.6804681
      },
      "tags": {
        "bridge": "yes",
        "highway": "tertiary",
        "lanes": "2",
        "layer": "1",
        "name": "Cầu Số 9",
        "oneway": "yes",
        "surface": "asphalt"
      }
    },
    {
      "type": "way",
      "id": 35112969,
      "center": {
        "lat": 10.783105,
        "lon": 106.6730649
      },
      "tags": {
        "highway": "residential",
        "name": "Hẻm 372 Cách Mạng Tháng 8"
      }
    },
    {
      "type": "way",
      "id": 35112973,
      "center": {
        "lat": 10.7818823,
        "lon": 106.6823739
      },
      "tags": {
        "bicycle": "yes",
        "foot": "yes",
        "highway": "residential",
        "motorcycle": "yes",
        "name": "Hẻm 80 Bà Huyện Thanh Quan"
      }
    },
    {
      "type": "way",
      "id": 35113004,
      "center": {
        "lat": 10.7846726,
        "lon": 106.6693997
      },
      "tags": {
        "bicycle": "yes",
        "foot": "yes",
        "highway": "residential",
        "motorcycle": "yes",
        "name": "Hẻm 462 Cách Mạng Tháng 8"
      }
    },
    {
      "type": "way",
      "id": 35113011,
      "center": {
        "lat": 10.7677504,
        "lon": 106.6828595
      },
      "tags": {
        "highway": "service",
        "motorcar": "destination",
        "name": "Hẻm 16/72 Nguyễn Thiện Thuật",
        "service": "alley"
      }
    },
    {
      "type": "way",
      "id": 35113016,
      "center": {
        "lat": 10.7876435,
        "lon": 106.678567
      },
      "tags": {
        "bicycle": "yes",
        "foot": "yes",
        "highway": "service",
        "name": "Hẻm 362 Lê Văn Sỹ",
        "service": "alley"
      }
    },
    {
      "type": "way",
      "id": 35113019,
      "center": {
        "lat": 10.7694927,
        "lon": 106.6842567
      },
      "tags": {
        "highway": "residential",
        "name": "Nguyễn Sơn Hà",
        "name:en": "Nguyen Son Ha",
        "surface": "asphalt"
      }
    },
    {
      "type": "way",
      "id": 35113022,
      "center": {
        "lat": 10.7850659,
        "lon": 106.6695751
      },
      "tags": {
        "bicycle": "yes",
        "foot": "yes",
        "highway": "residential",
        "motorcycle": "yes",
        "name": "Hẻm 462 Đường Cách Mạng Tháng 8"
      }
    },
    {
      "type": "way",
      "id": 35113026,
      "center": {
        "lat": 10.7669581,
        "lon": 106.6784592
      },
      "tags": {
        "highway": "service",
        "motorcar": "destination",
        "name": "Hẻm 166 Đường Lý Thái Tổ",
        "service": "alley",
        "surface": "asphalt"
      }
    },
    {
      "type": "way",
      "id": 35113052,
      "center": {
        "lat": 10.7746627,
        "lon": 106.6829119
      },
      "tags": {
        "bicycle": "yes",
        "foot": "yes",
        "highway": "residential",
        "motorcycle": "yes",
        "name": "Hẻm 335 Điện Biên Phủ",
        "surface": "asphalt"
      }
    },
    {
      "type": "way",
      "id": 35113064,
      "center": {
        "lat": 10.7695206,
        "lon": 106.6788456
      },
      "tags": {
        "highway": "service",
        "motorcar": "destination",
        "name": "Hẻm 212/21 Nguyễn Thiện Thuật",
        "service": "alley"
      }
    },
    {
      "type": "way",
      "id": 35113067,
      "center": {
        "lat": 10.7698807,
        "lon": 106.6795646
      },
      "tags": {
        "highway": "service",
        "motorcar": "destination",
        "name": "Hẻm 212 Nguyễn Thiện Thuật",
        "service": "alley"
      }
    },
    {
      "type": "way",
      "id": 35113069,
      "center": {
        "lat": 10.7860421,
        "lon": 106.6796597
      },
      "tags": {
        "highway": "residential",
        "motorcar": "destination",
        "name": "Hẻm 207 Lê Văn Sỹ"
      }
    },
    {
      "type": "way",
      "id": 35113070,
      "center": {
        "lat": 10.7670665,
        "lon": 106.6833259
      },
      "tags": {
        "highway": "primary",
        "lanes": "2",
        "lit": "yes",
        "maxspeed": "60",
        "name": "Nguyễn Thị Minh Khai",
        "name:en": "Nguyen Thi Minh Khai",
        "old_name": "Hồng Thập Tự",
        "old_name:-1865": "Rue no. 25",
        "old_name:1865-1955": "Rue Chasseloup-Laubat",
        "old_name:1955-1975": "Hồng Thập Tự",
        "old_name:en": "Hong Thap Tu Street",
        "old_name:en:-1865": "Street no. 25",
        "old_name:en:1865-1955": "Chasseloup-Laubat Street",
        "old_name:en:1955-1975": "Hong Thap Tu Street",
        "old_name:fr": "Rue de la Croix Rouge",
        "old_name:fr:-1865": "Rue no. 25",
        "old_name:fr:1865-1955": "Rue Chasseloup-Laubat",
        "old_name:fr:1955-1975": "Rue de la Croix Rouge",
        "old_name:id": "Jalan Hong Thap Tu (Palang Merah)",
        "old_name:id:-1865": "Jalan no. 25",
        "old_name:id:1865-1955": "Jalan Chasseloup-Laubat",
        "old_name:id:1955-1975": "Jalan Palang Merah",
        "old_name:ru": "улица Хонг Тхап Ты (Красного Креста)",
        "old_name:ru:-1865": "улица № 25",
        "old_name:ru:1865-1955": "улица Шасслу-Лаубы",
        "old_name:ru:1955-1975": "улица Хонг Тхап Ты (Красного Креста)",
        "old_name:vi": "Hồng Thập Tự",
        "old_name:vi:-1865": "Đường số 25",
        "old_name:vi:1865-1955": "Chasseloup-Laubat",
        "old_name:vi:1955-1975": "Hồng Thập Tự",
        "old_name:zh": "红十字路",
        "old_name:zh:-1865": "25号路",
        "old_name:zh:1865-1955": "夏瑟鲁普-洛巴路",
        "old_name:zh:1955-1975": "红十字路",
        "oneway": "yes",
        "surface": "asphalt"
      }
    },
    {
      "type": "way",
      "id": 35113072,
      "center": {
        "lat": 10.773601,
        "lon": 106.6829265
      },
      "tags": {
        "highway": "residential",
        "name": "Đường Vườn Chuối",
        "name:en": "Vuon Chuoi St.",
        "surface": "asphalt"
      }
    },
    {
      "type": "way",
      "id": 35113073,
      "center": {
        "lat": 10.7700306,
        "lon": 106.6782438
      },
      "tags": {
        "bicycle": "yes",
        "foot": "yes",
        "highway": "service",
        "motorcycle": "yes",
        "name": "Hẻm 242/21 Nguyễn Thiện Thuật",
        "service": "alley"
      }
    },
    {
      "type": "way",
      "id": 35113074,
      "center": {
        "lat": 10.7675723,
        "lon": 106.6812005
      },
      "tags": {
        "highway": "service",
        "motorcar": "no",
        "name": "Hẻm 549 Nguyễn Ðình Chiểu",
        "service": "alley",
        "surface": "asphalt"
      }
    },
    {
      "type": "way",
      "id": 35113076,
      "center": {
        "lat": 10.7792063,
        "lon": 106.6805231
      },
      "tags": {
        "highway": "tertiary",
        "lanes": "2",
        "name": "Nguyễn Phúc Nguyên",
        "oneway": "no",
        "surface": "asphalt"
      }
    },
    {
      "type": "way",
      "id": 35113088,
      "center": {
        "lat": 10.7877623,
        "lon": 106.6745832
      },
      "tags": {
        "bicycle": "yes",
        "foot": "yes",
        "highway": "service",
        "motorcar": "destination",
        "name": "Hẻm 413 Lê Văn Sỹ",
        "service": "alley"
      }
    },
    {
      "type": "way",
      "id": 35113091,
      "center": {
        "lat": 10.7883042,
        "lon": 106.6756325
      },
      "tags": {
        "bicycle": "yes",
        "foot": "yes",
        "highway": "residential",
        "name": "Hẻm 413 Lê Văn Sỹ"
      }
    },
    {
      "type": "way",
      "id": 35113096,
      "center": {
        "lat": 10.7736493,
        "lon": 106.6816208
      },
      "tags": {
        "highway": "residential",
        "name": "Ðường Số 1 Cư Xá Đô Thành",
        "surface": "asphalt"
      }
    },
    {
      "type": "way",
      "id": 35113099,
      "center": {
        "lat": 10.7741821,
        "lon": 106.6832452
      },
      "tags": {
        "hgv:conditional": "no @ (weight>1)",
        "highway": "residential",
        "maxweight": "1",
        "name": "Ðường Số 1 Cư Xá Đô Thành",
        "surface": "asphalt"
      }
    },
    {
      "type": "way",
      "id": 35113106,
      "center": {
        "lat": 10.7872826,
        "lon": 106.6756531
      },
      "tags": {
        "bicycle": "yes",
        "foot": "yes",
        "highway": "residential",
        "motorcycle": "yes",
        "name": "Hẻm 413 Lê Văn Sỹ"
      }
    },
    {
      "type": "way",
      "id": 35113124,
      "center": {
        "lat": 10.7692086,
        "lon": 106.6842825
      },
      "tags": {
        "bicycle": "yes",
        "foot": "yes",
        "highway": "residential"
      }
    },
    {
      "type": "way",
      "id": 35113134,
      "center": {
        "lat": 10.7687086,
        "lon": 106.6778181
      },
      "tags": {
        "bicycle": "yes",
        "foot": "yes",
        "hgv:conditional": "no @ weight>1",
        "highway": "residential",
        "lane_markings": "no",
        "motorcycle": "yes",
        "name": "Hẻm 251 Nguyễn Thiện Thuật",
        "surface": "asphalt"
      }
    },
    {
      "type": "way",
      "id": 35113135,
      "center": {
        "lat": 10.7679344,
        "lon": 106.6754495
      },
      "tags": {
        "bicycle": "yes",
        "foot": "yes",
        "highway": "service",
        "motorcycle": "yes",
        "service": "alley"
      }
    },
    {
      "type": "way",
      "id": 35113149,
      "center": {
        "lat": 10.7864742,
        "lon": 106.6803336
      },
      "tags": {
        "highway": "residential",
        "motorcycle": "yes",
        "name": "Lê Văn Sỹ",
        "name:en": "Hem 207 Le Van Sy"
      }
    },
    {
      "type": "way",
      "id": 35113152,
      "center": {
        "lat": 10.7844461,
        "lon": 106.6784568
      },
      "tags": {
        "highway": "tertiary",
        "lanes": "2",
        "name": "Trần Quang Diệu",
        "smoothness": "good",
        "surface": "asphalt"
      }
    },
    {
      "type": "way",
      "id": 35113171,
      "center": {
        "lat": 10.789584,
        "lon": 106.6754356
      },
      "tags": {
        "bicycle": "yes",
        "foot": "yes",
        "highway": "service",
        "motorcar": "destination",
        "service": "alley"
      }
    },
    {
      "type": "way",
      "id": 35113172,
      "center": {
        "lat": 10.7673009,
        "lon": 106.6788322
      },
      "tags": {
        "highway": "service",
        "motorcar": "destination",
        "name": "Hẻm 145/38 Nguyễn Thiện Thuật",
        "service": "alley"
      }
    },
    {
      "type": "way",
      "id": 35113173,
      "center": {
        "lat": 10.7682043,
        "lon": 106.6764024
      },
      "tags": {
        "highway": "service",
        "motorcar": "destination",
        "service": "alley"
      }
    },
    {
      "type": "way",
      "id": 35113186,
      "center": {
        "lat": 10.7899757,
        "lon": 106.674938
      },
      "tags": {
        "highway": "residential",
        "motorcar": "destination",
        "name": "Hẻm 490 Lê Văn Sỹ"
      }
    },
    {
      "type": "way",
      "id": 35113195,
      "center": {
        "lat": 10.7905425,
        "lon": 106.6775976
      },
      "tags": {
        "highway": "service",
        "motorcar": "destination",
        "name": "Hẻm 103 Trần Quang Diệu",
        "service": "alley"
      }
    },
    {
      "type": "way",
      "id": 35113203,
      "center": {
        "lat": 10.7733529,
        "lon": 106.6815878
      },
      "tags": {
        "bicycle": "yes",
        "foot": "yes",
        "highway": "service",
        "motorcar": "no",
        "name": "Hẻm 7 Ðường Số 5 Cư Xá Đô Thành",
        "service": "alley"
      }
    },
    {
      "type": "way",
      "id": 35113209,
      "center": {
        "lat": 10.7673085,
        "lon": 106.6792384
      },
      "tags": {
        "bicycle": "yes",
        "foot": "yes",
        "highway": "residential",
        "lane_markings": "no",
        "motorcar": "destination",
        "motorcycle": "yes",
        "name": "Hẻm 145 Nguyễn Thiện Thuật",
        "surface": "asphalt"
      }
    },
    {
      "type": "way",
      "id": 35113211,
      "center": {
        "lat": 10.7724385,
        "lon": 106.6839024
      },
      "tags": {
        "access": "yes",
        "bicycle": "yes",
        "cycleway": "lane",
        "foot": "yes",
        "hgv:conditional": "no @ (weight>1)",
        "highway": "service",
        "maxspeed": "50",
        "motorcar": "no",
        "name": "Hẻm 6 Vườn Chuối",
        "oneway": "no",
        "service": "alley",
        "surface": "concrete"
      }
    },
    {
      "type": "way",
      "id": 35113231,
      "center": {
        "lat": 10.7735414,
        "lon": 106.6821436
      },
      "tags": {
        "bicycle": "yes",
        "foot": "yes",
        "highway": "service",
        "motorcar": "no",
        "name": "Hẻm 89 Đường Vườn Chuối",
        "service": "alley"
      }
    },
    {
      "type": "way",
      "id": 35113234,
      "center": {
        "lat": 10.7737346,
        "lon": 106.682699
      },
      "tags": {
        "highway": "residential",
        "motorcar": "destination",
        "name": "Hẻm 89 Đường Vườn Chuối",
        "surface": "concrete"
      }
    },
    {
      "type": "way",
      "id": 35113243,
      "center": {
        "lat": 10.7814289,
        "lon": 106.6790118
      },
      "tags": {
        "highway": "residential",
        "motorcar": "destination",
        "name": "Hẻm 153 Nguyễn Thông"
      }
    },
    {
      "type": "way",
      "id": 35113262,
      "center": {
        "lat": 10.7686386,
        "lon": 106.6758058
      },
      "tags": {
        "highway": "service",
        "motorcar": "destination",
        "name": "Hẻm 645 Ðiện Biên Phủ",
        "service": "alley",
        "surface": "asphalt"
      }
    },
    {
      "type": "way",
      "id": 35113268,
      "center": {
        "lat": 10.789366,
        "lon": 106.6778479
      },
      "tags": {
        "bicycle": "yes",
        "foot": "yes",
        "highway": "residential",
        "motorcycle": "yes",
        "name": "Cư Xá Trần Quang Diệu"
      }
    },
    {
      "type": "way",
      "id": 35113282,
      "center": {
        "lat": 10.7702621,
        "lon": 106.6830571
      },
      "tags": {
        "bicycle": "yes",
        "foot": "yes",
        "highway": "service",
        "motorcar": "destination",
        "motorcycle": "yes",
        "service": "alley"
      }
    },
    {
      "type": "way",
      "id": 35113285,
      "center": {
        "lat": 10.7707253,
        "lon": 106.6826162
      },
      "tags": {
        "bicycle": "yes",
        "foot": "yes",
        "highway": "service",
        "motorcycle": "yes",
        "service": "alley",
        "surface": "asphalt"
      }
    },
    {
      "type": "way",
      "id": 35113289,
      "center": {
        "lat": 10.7870841,
        "lon": 106.6775099
      },
      "tags": {
        "highway": "residential",
        "motorcar": "destination",
        "name": "Hẻm 331 Lê Văn Sỹ"
      }
    },
    {
      "type": "way",
      "id": 35113291,
      "center": {
        "lat": 10.770128,
        "lon": 106.6802981
      },
      "tags": {
        "bicycle": "yes",
        "foot": "yes",
        "highway": "service",
        "motorcar": "no",
        "motorcycle": "yes",
        "name": "Hẻm 174/93 Nguyễn Thiện Thuật",
        "service": "alley"
      }
    },
    {
      "type": "way",
      "id": 35113319,
      "center": {
        "lat": 10.771163,
        "lon": 106.681057
      },
      "tags": {
        "bicycle": "yes",
        "foot": "yes",
        "highway": "service",
        "moped": "yes",
        "service": "alley",
        "surface": "concrete"
      }
    },
    {
      "type": "way",
      "id": 35113322,
      "center": {
        "lat": 10.7713253,
        "lon": 106.6791749
      },
      "tags": {
        "bicycle": "yes",
        "foot": "yes",
        "highway": "service",
        "motorcycle": "yes",
        "name": "Hẻm 114 Bàn Cờ",
        "service": "alley"
      }
    },
    {
      "type": "way",
      "id": 35113328,
      "center": {
        "lat": 10.7687738,
        "lon": 106.6821911
      },
      "tags": {
        "bicycle": "yes",
        "foot": "yes",
        "highway": "service",
        "motorcycle": "yes",
        "name": "Hẻm 491/7 Nguyễn Ðình Chiểu",
        "service": "alley"
      }
    },
    {
      "type": "way",
      "id": 35113331,
      "center": {
        "lat": 10.7884532,
        "lon": 106.6791646
      },
      "tags": {
        "bicycle": "yes",
        "foot": "yes",
        "highway": "residential",
        "name": "Hẻm 18 Trần Quang Diệu"
      }
    },
    {
      "type": "way",
      "id": 35113337,
      "center": {
        "lat": 10.774515,
        "lon": 106.6846101
      },
      "tags": {
        "highway": "service",
        "motorcar": "destination",
        "name": "Hẻm 390 Đường Nguyễn Ðình Chiểu",
        "service": "alley",
        "surface": "asphalt"
      }
    },
    {
      "type": "way",
      "id": 35113366,
      "center": {
        "lat": 10.7680565,
        "lon": 106.6765592
      },
      "tags": {
        "bicycle": "yes",
        "foot": "yes",
        "highway": "service",
        "motorcycle": "yes",
        "service": "alley"
      }
    },
    {
      "type": "way",
      "id": 35113387,
      "center": {
        "lat": 10.7716643,
        "lon": 106.6788686
      },
      "tags": {
        "bicycle": "yes",
        "foot": "yes",
        "highway": "service",
        "name": "Hẻm 457 Ðiện Biên Phủ",
        "service": "alley",
        "surface": "asphalt"
      }
    },
    {
      "type": "way",
      "id": 35113389,
      "center": {
        "lat": 10.7850611,
        "lon": 106.6690224
      },
      "tags": {
        "highway": "service",
        "motorcar": "destination",
        "name": "Hẻm 480 Cách Mạng Tháng 8"
      }
    },
    {
      "type": "way",
      "id": 35113394,
      "center": {
        "lat": 10.7676226,
        "lon": 106.6787796
      },
      "tags": {
        "highway": "residential",
        "name": "Hẻm 175 Nguyễn Thiện Thuật"
      }
    },
    {
      "type": "way",
      "id": 35113400,
      "center": {
        "lat": 10.7792139,
        "lon": 106.6799534
      },
      "tags": {
        "highway": "residential",
        "name": "Hẻm 134/1 Cách Mạng Tháng 8"
      }
    },
    {
      "type": "way",
      "id": 35113438,
      "center": {
        "lat": 10.7858744,
        "lon": 106.6818589
      },
      "tags": {
        "bicycle": "yes",
        "foot": "yes",
        "highway": "service",
        "motorcycle": "yes",
        "name": "Hẻm 202 Trần Quốc Thảo",
        "service": "alley"
      }
    },
    {
      "type": "way",
      "id": 35113440,
      "center": {
        "lat": 10.7882133,
        "lon": 106.6704725
      },
      "tags": {
        "highway": "tertiary",
        "lane_markings": "yes",
        "lanes": "2",
        "name": "Cầu Số 6",
        "oneway": "yes",
        "smoothness": "excellent",
        "surface": "asphalt"
      }
    },
    {
      "type": "way",
      "id": 35113467,
      "center": {
        "lat": 10.7802785,
        "lon": 106.6784488
      },
      "tags": {
        "highway": "service",
        "name": "Hẻm 210 Cách Mạng Tháng Tám",
        "surface": "asphalt"
      }
    },
    {
      "type": "way",
      "id": 35113494,
      "center": {
        "lat": 10.7677741,
        "lon": 106.6752533
      },
      "tags": {
        "highway": "service",
        "name": "Hẻm 346 Lý Thái Tổ",
        "service": "alley",
        "surface": "concrete"
      }
    },
    {
      "type": "way",
      "id": 35113513,
      "center": {
        "lat": 10.7863128,
        "lon": 106.6794036
      },
      "tags": {
        "bicycle": "yes",
        "foot": "yes",
        "highway": "service",
        "name": "Hẻm 209 Lê Văn Sỹ",
        "service": "alley"
      }
    },
    {
      "type": "way",
      "id": 35113515,
      "center": {
        "lat": 10.7678667,
        "lon": 106.6749494
      },
      "tags": {
        "highway": "service",
        "name": "Hẻm 362 Lý Thái Tổ",
        "service": "alley"
      }
    },
    {
      "type": "way",
      "id": 35113519,
      "center": {
        "lat": 10.7877224,
        "lon": 106.6761286
      },
      "tags": {
        "bicycle": "yes",
        "foot": "yes",
        "highway": "service",
        "motorcar": "no",
        "motorcycle": "yes",
        "service": "alley"
      }
    },
    {
      "type": "way",
      "id": 35113526,
      "center": {
        "lat": 10.7710473,
        "lon": 106.6793189
      },
      "tags": {
        "bicycle": "yes",
        "foot": "yes",
        "highway": "service",
        "motorcar": "no",
        "motorcycle": "yes",
        "name": "Hẻm 242/97 Nguyễn Thiện Thuật",
        "service": "alley"
      }
    },
    {
      "type": "way",
      "id": 35113529,
      "center": {
        "lat": 10.7877148,
        "lon": 106.676295
      },
      "tags": {
        "bicycle": "yes",
        "foot": "yes",
        "highway": "service",
        "motorcar": "no",
        "motorcycle": "yes",
        "service": "alley"
      }
    },
    {
      "type": "way",
      "id": 35113541,
      "center": {
        "lat": 10.7865089,
        "lon": 106.671717
      },
      "tags": {
        "highway": "tertiary",
        "lanes": "2",
        "motorcar:conditional": "no @ (Jan 14-Feb 18 06:00-08:00, Jan 14-Feb 18 16:00-20:00)",
        "name": "Đỗ Thị Lời",
        "surface": "asphalt"
      }
    },
    {
      "type": "way",
      "id": 35113549,
      "center": {
        "lat": 10.7702506,
        "lon": 106.6794575
      },
      "tags": {
        "bicycle": "yes",
        "foot": "yes",
        "highway": "service",
        "motorcycle": "yes",
        "name": "Hẻm 212/75 Nguyễn Thiện Thuật",
        "service": "alley"
      }
    },
    {
      "type": "way",
      "id": 35113555,
      "center": {
        "lat": 10.7743738,
        "lon": 106.6822428
      },
      "tags": {
        "bicycle": "yes",
        "foot": "yes",
        "hgv:conditional": "no @ (weight>1)",
        "highway": "service",
        "motorcycle": "yes",
        "name": "Hẻm 107 Đường Vườn Chuối",
        "service": "alley",
        "surface": "concrete"
      }
    },
    {
      "type": "way",
      "id": 35113566,
      "center": {
        "lat": 10.7862468,
        "lon": 106.6783753
      },
      "tags": {
        "highway": "tertiary",
        "name": "Trần Quang Diệu",
        "surface": "asphalt"
      }
    },
    {
      "type": "way",
      "id": 35113568,
      "center": {
        "lat": 10.7834566,
        "lon": 106.6784982
      },
      "tags": {
        "highway": "tertiary",
        "lanes": "2",
        "name": "Đường Trần Quang Diệu",
        "name:en": "Tran Quang Dieu",
        "surface": "asphalt"
      }
    },
    {
      "type": "way",
      "id": 35113571,
      "center": {
        "lat": 10.7838054,
        "lon": 106.6756752
      },
      "tags": {
        "bicycle": "yes",
        "foot": "yes",
        "highway": "service",
        "motor_vehicle": "no",
        "motorcycle": "yes",
        "name": "Hẻm 79 Đường Trần Văn Ðang",
        "name:en": "Hem 79 Tran Van Dang",
        "service": "alley"
      }
    },
    {
      "type": "way",
      "id": 35113606,
      "center": {
        "lat": 10.7678254,
        "lon": 106.6765123
      },
      "tags": {
        "bicycle": "yes",
        "foot": "yes",
        "highway": "service",
        "motorcycle": "yes",
        "service": "alley"
      }
    },